City ID,City,Lat,Lng,Max Temp,Humidity,Cloudiness,Wind Speed,Country,Date
0,George Town,5.41,100.34,78.8,88,20,4.7,MY,2020-10-21 00:01:20
1,Mataura,-46.19,168.86,55.99,62,25,7.0,NZ,2020-10-21 00:04:03
2,Hong Kong,22.29,114.16,73.0,71,79,1.01,HK,2020-10-21 00:04:21
3,Zemio,5.03,25.14,71.02,93,100,1.74,CF,2020-10-21 00:08:02
4,Dwārka,22.24,68.97,83.26,79,0,7.65,IN,2020-10-21 00:06:04
5,Turaif,31.67,38.66,60.8,26,0,4.7,SA,2020-10-21 00:08:02
6,Kapaa,22.08,-159.32,81.0,88,90,8.05,US,2020-10-21 00:03:58
7,Puerto Ayora,-0.74,-90.35,70.0,91,78,7.0,EC,2020-10-21 00:04:01
8,Bredasdorp,-34.53,20.04,42.8,87,0,4.7,ZA,2020-10-21 00:02:19
9,Tahe,52.33,124.73,34.97,87,58,3.44,CN,2020-10-21 00:08:04
10,Kondinskoye,59.65,67.41,34.16,93,100,5.91,RU,2020-10-21 00:08:04
11,Ushuaia,-54.8,-68.3,42.8,81,40,6.93,AR,2020-10-21 00:01:28
12,Bambous Virieux,-20.34,57.76,73.99,83,40,8.05,MU,2020-10-21 00:02:29
13,Rikitea,-23.12,-134.97,73.85,77,2,11.05,PF,2020-10-21 00:04:08
14,Jijiga,9.35,42.8,62.94,46,0,7.49,ET,2020-10-21 00:08:05
15,Jamestown,42.1,-79.24,48.0,93,90,5.82,US,2020-10-21 00:03:29
16,Bluff,-46.6,168.33,55.99,62,59,7.0,NZ,2020-10-21 00:03:06
17,Deniliquin,-35.53,144.97,71.74,46,55,2.33,AU,2020-10-21 00:08:06
18,Bengkulu,-3.8,102.27,78.08,77,98,3.18,ID,2020-10-21 00:04:26
19,Kaitangata,-46.28,169.85,55.35,49,72,0.63,NZ,2020-10-21 00:08:06
20,Paso de Carrasco,-34.86,-56.05,54.0,50,89,19.46,UY,2020-10-21 00:08:07
21,Goderich,43.75,-81.72,50.0,83,98,14.25,CA,2020-10-21 00:02:47
22,Upernavik,72.79,-56.15,33.35,90,100,1.72,GL,2020-10-21 00:03:46
23,Hobart,-42.88,147.33,62.01,54,40,6.93,AU,2020-10-20 23:59:51
24,Punta Arenas,-53.15,-70.92,46.4,52,75,8.05,CL,2020-10-21 00:02:59
25,Waipawa,-41.41,175.52,62.01,72,83,17.22,NZ,2020-10-21 00:08:08
26,Vaini,-21.2,-175.2,77.0,65,75,10.29,TO,2020-10-21 00:02:25
27,Cape Town,-33.93,18.42,52.0,76,0,1.12,ZA,2020-10-21 00:01:56
28,Sungai Penuh,-2.08,101.38,67.37,86,98,1.61,ID,2020-10-21 00:08:08
29,Qaanaaq,77.48,-69.36,20.7,82,0,6.06,GL,2020-10-21 00:04:14
30,Hermanus,-34.42,19.23,44.01,93,0,2.35,ZA,2020-10-21 00:01:58
31,Skjervøy,70.03,20.97,36.77,79,87,14.94,NO,2020-10-21 00:08:09
32,Cabo San Lucas,22.89,-109.91,89.6,35,5,11.41,MX,2020-10-21 00:03:08
33,Araouane,18.9,-3.53,85.89,16,0,8.75,ML,2020-10-21 00:08:09
34,Avarua,-21.21,-159.78,77.0,88,88,4.7,CK,2020-10-21 00:03:15
35,Xining,36.62,101.77,35.33,68,0,1.74,CN,2020-10-21 00:03:58
36,Busselton,-33.65,115.33,64.0,53,0,7.16,AU,2020-10-21 00:00:29
37,New Norfolk,-42.78,147.06,63.0,54,95,1.01,AU,2020-10-21 00:04:28
38,Barcelos,41.54,-8.62,60.8,100,75,19.46,PT,2020-10-21 00:03:14
39,Butaritari,3.07,172.79,82.04,77,84,12.41,KI,2020-10-21 00:04:34
40,Torbay,47.67,-52.73,55.99,93,90,14.99,CA,2020-10-21 00:03:18
41,Saskylakh,71.92,114.08,19.85,97,96,8.48,RU,2020-10-21 00:04:11
42,Dunedin,-45.87,170.5,54.93,57,85,3.62,NZ,2020-10-21 00:08:12
43,Guozhen,34.37,107.36,56.01,38,92,3.18,CN,2020-10-21 00:08:12
44,Auki,-8.77,160.7,84.16,72,100,4.34,SB,2020-10-21 00:03:58
45,Kodala,19.63,84.95,76.17,86,88,4.03,IN,2020-10-21 00:08:12
46,Birjand,32.87,59.22,37.4,11,0,9.17,IR,2020-10-21 00:08:12
47,Oodweyne,9.41,45.06,71.85,23,0,5.46,SO,2020-10-21 00:04:12
48,Biak,-0.91,122.88,80.8,69,92,5.26,ID,2020-10-21 00:08:13
49,Yellowknife,62.46,-114.35,23.0,85,75,13.87,CA,2020-10-21 00:00:02
50,Clyde River,70.47,-68.59,28.4,79,40,13.87,CA,2020-10-21 00:08:13
51,Hilo,19.73,-155.09,87.8,45,1,11.41,US,2020-10-21 00:03:39
52,Saint Paul Harbor,57.79,-152.41,48.2,42,1,19.46,US,2020-10-21 00:04:47
53,Leshukonskoye,64.9,45.76,19.49,97,57,3.98,RU,2020-10-21 00:08:14
54,Batagay,67.63,134.63,8.17,92,94,3.42,RU,2020-10-21 00:08:14
55,Katsuura,35.13,140.3,66.0,67,20,17.22,JP,2020-10-21 00:05:34
56,Aklavik,68.22,-135.01,23.0,79,90,14.99,CA,2020-10-21 00:04:48
57,Pereira Barreto,-20.64,-51.11,74.61,83,14,6.67,BR,2020-10-21 00:08:15
58,Dingle,11.0,122.67,82.04,84,57,12.3,PH,2020-10-21 00:08:15
59,Saint George,37.1,-113.58,84.2,9,1,5.82,US,2020-10-21 00:05:35
60,Tuatapere,-46.13,167.68,55.99,62,31,7.0,NZ,2020-10-21 00:08:15
61,Itarema,-2.92,-39.92,79.27,74,16,16.71,BR,2020-10-21 00:08:16
62,Arraial do Cabo,-22.97,-42.03,72.95,82,0,21.39,BR,2020-10-21 00:00:07
63,Ossora,59.24,163.07,35.04,94,100,10.36,RU,2020-10-21 00:08:16
64,Comodoro Rivadavia,-45.87,-67.5,46.4,70,75,11.41,AR,2020-10-21 00:08:17
65,Port Alfred,-33.59,26.89,56.28,74,3,9.62,ZA,2020-10-21 00:04:07
66,Leningradskiy,69.38,178.42,36.84,80,100,9.91,RU,2020-10-21 00:04:11
67,Hamilton,39.18,-84.53,55.4,93,90,3.47,US,2020-10-21 00:08:17
68,Paita,-5.09,-81.11,64.11,84,18,11.61,PE,2020-10-21 00:08:18
69,Atuona,-9.8,-139.03,78.04,73,2,16.37,PF,2020-10-21 00:04:19
70,Safaga,26.73,33.94,78.8,39,0,10.29,EG,2020-10-21 00:08:18
71,De-Kastri,51.47,140.78,44.02,60,39,8.43,RU,2020-10-21 00:08:18
72,Ancud,-41.87,-73.82,48.2,66,0,6.93,CL,2020-10-21 00:08:19
73,Ekibastuz,51.67,75.37,46.94,48,6,8.32,KZ,2020-10-21 00:04:56
74,Esim,4.87,-2.24,76.66,89,100,8.5,GH,2020-10-21 00:08:19
75,Neuquén,-38.95,-68.06,73.4,25,40,23.04,AR,2020-10-21 00:08:19
76,Husavik,66.04,-17.34,24.8,85,82,4.7,IS,2020-10-21 00:04:08
77,Thompson,55.74,-97.86,28.4,74,90,3.36,CA,2020-10-21 00:00:10
78,Castro,-24.79,-50.01,64.94,87,70,5.61,BR,2020-10-21 00:02:10
79,Ulladulla,-35.35,150.47,70.0,56,57,9.17,AU,2020-10-21 00:08:21
80,Bathsheba,13.22,-59.52,82.4,74,20,9.17,BB,2020-10-21 00:08:21
81,Glinka,54.64,32.88,32.16,96,65,5.14,RU,2020-10-21 00:08:21
82,Henties Bay,-22.12,14.28,57.0,87,0,1.01,NA,2020-10-21 00:08:22
83,Pevek,69.7,170.31,30.83,95,99,17.27,RU,2020-10-21 00:04:36
84,Fortuna,40.6,-124.16,66.0,63,1,18.34,US,2020-10-21 00:00:16
85,Mayumba,-3.43,10.66,76.51,88,100,6.49,GA,2020-10-21 00:08:23
86,Siavonga,-16.54,28.71,79.66,37,0,3.13,ZM,2020-10-21 00:08:23
87,Mar del Plata,-38.0,-57.56,53.01,71,11,3.36,AR,2020-10-21 00:04:01
88,Çubuk,40.24,33.03,54.0,87,75,9.17,TR,2020-10-21 00:08:24
89,Lebu,-37.62,-73.65,49.87,76,19,19.19,CL,2020-10-21 00:03:34
90,Khatanga,71.97,102.5,5.95,95,81,7.99,RU,2020-10-21 00:04:16
91,Matagami,49.75,-77.63,30.2,100,1,2.08,CA,2020-10-21 00:08:24
92,Ponta do Sol,32.67,-17.1,66.2,68,20,3.36,PT,2020-10-21 00:08:24
93,Tigil',57.8,158.67,37.35,78,21,6.26,RU,2020-10-21 00:08:25
94,Padang,-0.95,100.35,80.31,70,80,4.12,ID,2020-10-21 00:07:00
95,Tuktoyaktuk,69.45,-133.04,23.0,92,90,14.99,CA,2020-10-21 00:04:16
96,Fuyang,32.9,115.82,58.77,70,99,9.04,CN,2020-10-21 00:08:26
97,Batemans Bay,-35.72,150.18,68.0,78,63,1.99,AU,2020-10-21 00:08:26
98,Oakdale,44.96,-92.96,34.0,80,90,11.41,US,2020-10-21 00:08:27
99,Mahébourg,-20.41,57.7,73.4,83,40,8.05,MU,2020-10-21 00:08:27
100,Nālūt,30.33,10.85,61.68,38,3,16.75,LY,2020-10-21 00:08:27
101,Huai Yot,7.79,99.63,81.0,100,20,1.23,TH,2020-10-21 00:04:13
102,Adrar,20.5,-10.07,84.52,16,0,6.51,MR,2020-10-21 00:08:28
103,San Diego de Los Baños,22.65,-83.37,75.09,88,87,6.82,CU,2020-10-21 00:08:28
104,Beidao,34.57,105.89,48.25,50,71,2.04,CN,2020-10-21 00:08:28
105,Kavieng,-2.57,150.8,82.0,78,92,9.15,PG,2020-10-21 00:04:43
106,Urengoy,65.97,78.37,26.44,98,100,8.25,RU,2020-10-21 00:08:28
107,Beira,-19.84,34.84,74.88,90,0,3.51,MZ,2020-10-21 00:07:52
108,Barrow,71.29,-156.79,24.8,85,75,11.41,US,2020-10-21 00:03:57
109,Dikson,73.51,80.55,23.22,96,89,5.46,RU,2020-10-21 00:01:52
110,Ketchikan,55.34,-131.65,46.4,81,20,3.36,US,2020-10-21 00:04:05
111,Keti Bandar,24.14,67.45,80.51,56,0,7.38,PK,2020-10-21 00:08:29
112,Albany,42.6,-73.97,59.0,81,100,3.36,US,2020-10-20 23:59:59
113,Pangnirtung,66.15,-65.71,26.6,92,90,2.06,CA,2020-10-21 00:08:30
114,Kaka,37.35,59.61,55.31,37,0,3.69,TM,2020-10-21 00:08:30
115,Grindavik,63.84,-22.43,37.4,93,75,4.7,IS,2020-10-21 00:08:30
116,Port Shepstone,-30.74,30.45,65.46,75,100,12.5,ZA,2020-10-21 00:05:40
117,Lavrentiya,65.58,-171.0,38.23,96,100,9.31,RU,2020-10-21 00:04:28
118,Chokurdakh,70.63,147.92,10.04,96,89,4.68,RU,2020-10-21 00:04:17
119,Vila,42.03,-8.16,55.0,95,100,5.01,PT,2020-10-21 00:08:31
120,Mackenzie,55.3,-123.17,39.2,60,90,4.7,CA,2020-10-21 00:08:31
121,Buala,-8.14,159.59,85.51,68,97,5.5,SB,2020-10-21 00:08:31
122,Hasaki,35.73,140.83,63.0,77,20,10.29,JP,2020-10-21 00:08:32
123,Lodja,-3.48,23.43,69.58,97,99,1.57,CD,2020-10-21 00:08:32
124,Tabou,4.42,-7.35,77.02,83,86,7.31,CI,2020-10-21 00:08:32
125,La Santisima Trinidad,-14.83,-64.9,84.07,51,64,2.44,BO,2020-10-21 00:08:32
126,Charters Towers,-20.1,146.27,84.96,43,4,16.24,AU,2020-10-21 00:08:32
127,Azare,11.68,10.19,77.61,31,26,1.99,NG,2020-10-21 00:08:33
128,Katherine,-14.47,132.27,87.8,58,75,9.17,AU,2020-10-21 00:04:51
129,Havelock,34.88,-76.9,72.0,88,1,5.46,US,2020-10-21 00:08:33
130,Cockeysville,39.48,-76.64,63.0,88,89,2.35,US,2020-10-21 00:08:33
131,Muros,42.78,-9.06,59.0,89,100,11.01,ES,2020-10-21 00:05:01
132,Flinders,-34.58,150.86,73.99,65,17,4.0,AU,2020-10-21 00:08:34
133,Camacha,33.08,-16.33,68.0,68,40,16.11,PT,2020-10-21 00:08:34
134,Nome,64.5,-165.41,39.2,86,40,5.82,US,2020-10-21 00:04:03
135,Puerto Escondido,15.85,-97.07,78.8,74,75,8.05,MX,2020-10-21 00:08:35
136,Dourbali,11.81,15.86,84.6,19,0,6.53,TD,2020-10-21 00:08:35
137,Williston,48.15,-103.62,30.2,74,90,12.75,US,2020-10-21 00:08:35
138,Palu,-0.89,119.87,81.34,74,99,2.17,ID,2020-10-21 00:08:35
139,Namatanai,-3.67,152.43,85.06,67,54,0.78,PG,2020-10-21 00:04:33
140,Yulara,-25.24,130.99,82.4,42,0,9.17,AU,2020-10-21 00:08:36
141,Bethel,41.37,-73.41,62.6,93,1,4.7,US,2020-10-21 00:04:00
142,Cherskiy,68.75,161.3,22.51,97,95,6.69,RU,2020-10-21 00:03:31
143,Sedalia,38.7,-93.23,48.99,93,90,2.19,US,2020-10-21 00:08:36
144,Bubaque,11.28,-15.83,82.02,81,2,11.54,GW,2020-10-21 00:08:37
145,Yatou,37.15,122.38,64.18,71,100,15.82,CN,2020-10-21 00:08:37
146,Santarém,-2.44,-54.71,84.2,74,20,4.7,BR,2020-10-21 00:06:13
147,Petkovci,44.45,19.08,35.6,93,23,1.12,BA,2020-10-21 00:08:37
148,Kruisfontein,-34.0,24.73,52.0,85,0,1.01,ZA,2020-10-21 00:03:57
149,Qaqortoq,60.72,-46.03,32.0,96,100,3.36,GL,2020-10-21 00:08:38
150,Makueni Boma,-1.8,37.62,63.18,84,60,3.89,KE,2020-10-21 00:08:38
151,Talnakh,69.49,88.4,6.8,84,40,2.24,RU,2020-10-21 00:04:37
152,Banda Aceh,5.56,95.32,80.92,71,65,8.77,ID,2020-10-21 00:08:38
153,Egvekinot,66.32,-179.17,33.91,100,99,6.35,RU,2020-10-21 00:08:11
154,Burnie,-41.07,145.92,57.0,69,73,5.99,AU,2020-10-21 00:08:39
155,Manoel Urbano,-8.84,-69.26,72.19,97,90,5.39,BR,2020-10-21 00:04:29
156,Nantucket,41.28,-70.1,63.0,95,90,5.82,US,2020-10-21 00:08:20
157,Sioux Lookout,50.1,-91.92,32.0,86,75,8.05,CA,2020-10-21 00:08:39
158,Labuhan,-6.88,112.21,82.96,73,12,7.2,ID,2020-10-21 00:04:50
159,Sasaram,24.95,84.01,72.66,61,0,2.71,IN,2020-10-21 00:08:40
160,Kousséri,12.08,15.03,77.0,78,0,5.82,CM,2020-10-21 00:08:40
161,Guerrero Negro,27.98,-114.06,73.4,74,6,17.47,MX,2020-10-21 00:08:40
162,Nikolskoye,59.7,30.79,32.0,92,75,1.66,RU,2020-10-21 00:08:40
163,Kidal,18.44,1.41,85.32,15,0,3.62,ML,2020-10-21 00:08:40
164,Barreirinha,-2.79,-57.07,82.29,60,42,1.81,BR,2020-10-21 00:08:41
165,Halifax,44.65,-63.57,60.01,91,96,1.01,CA,2020-10-21 00:03:42
166,Jumla,29.27,82.18,45.03,56,0,5.06,NP,2020-10-21 00:08:41
167,Ostrovnoy,68.05,39.51,36.88,80,100,13.8,RU,2020-10-21 00:08:41
168,Carnarvon,-24.87,113.63,68.0,72,65,16.11,AU,2020-10-21 00:04:09
169,Gävle,60.67,17.14,42.01,98,100,5.01,SE,2020-10-21 00:06:42
170,Wells,51.21,-2.65,57.99,93,75,10.29,GB,2020-10-21 00:08:42
171,Tasiilaq,65.61,-37.64,32.0,93,100,17.22,GL,2020-10-21 00:01:54
172,San Patricio,28.02,-97.52,79.0,74,20,10.29,US,2020-10-21 00:04:56
173,Nanortalik,60.14,-45.24,36.12,93,99,12.64,GL,2020-10-21 00:04:09
174,São Filipe,14.9,-24.5,83.79,63,91,3.87,CV,2020-10-21 00:08:43
175,Saint-Philippe,-21.36,55.77,73.4,56,28,9.17,RE,2020-10-21 00:04:26
176,Brae,60.4,-1.35,48.2,87,100,26.4,GB,2020-10-21 00:08:43
177,Vakhrushev,48.98,142.97,46.54,55,0,7.76,RU,2020-10-21 00:08:43
178,Souillac,-20.52,57.52,73.4,83,40,8.05,MU,2020-10-21 00:04:10
179,Oromocto,45.84,-66.48,55.0,87,90,2.24,CA,2020-10-21 00:07:09
180,Baringo,0.47,35.97,74.68,62,98,0.34,KE,2020-10-21 00:08:44
181,Tura,25.52,90.22,71.44,92,0,2.82,IN,2020-10-21 00:04:42
182,Huarmey,-10.07,-78.15,64.42,79,33,7.18,PE,2020-10-21 00:08:45
183,Prabumulih,-3.45,104.25,78.39,86,85,0.94,ID,2020-10-21 00:08:45
184,Port Elizabeth,-33.92,25.57,53.6,81,1,5.82,ZA,2020-10-21 00:08:45
185,Killybegs,54.63,-8.45,54.0,97,97,5.01,IE,2020-10-21 00:08:45
186,Kavaratti,10.57,72.64,81.09,74,99,10.8,IN,2020-10-21 00:08:45
187,Conceição das Alagoas,-19.91,-48.39,71.58,84,83,7.7,BR,2020-10-21 00:08:46
188,Florø,61.6,5.03,46.4,81,100,13.87,NO,2020-10-21 00:08:46
189,Yumen,40.28,97.2,41.63,52,0,7.83,CN,2020-10-21 00:08:17
190,Loralai,30.37,68.6,52.56,29,0,5.03,PK,2020-10-21 00:07:17
191,Dubbo,-32.25,148.62,69.8,60,90,8.05,AU,2020-10-21 00:08:46
192,Dalvik,65.97,-18.53,24.8,85,57,4.7,IS,2020-10-21 00:08:47
193,Verkhnevilyuysk,63.45,120.32,17.13,97,71,3.96,RU,2020-10-21 00:08:47
194,Skreia,60.65,10.93,39.99,100,75,2.24,NO,2020-10-21 00:08:47
195,Yangi Marg`ilon,40.43,71.72,55.4,50,0,6.93,UZ,2020-10-21 00:08:47
196,Ribeira Grande,38.52,-28.7,63.5,65,88,26.73,PT,2020-10-21 00:08:48
197,Ca Mau,9.18,105.15,78.84,88,100,3.89,VN,2020-10-21 00:08:48
198,Aksu,41.12,80.26,46.81,48,0,2.37,CN,2020-10-21 00:07:45
199,Saldanha,-33.01,17.94,46.4,81,0,3.36,ZA,2020-10-21 00:04:55
200,Sabha,27.04,14.43,68.23,58,60,11.72,LY,2020-10-21 00:08:48
201,Kokstad,-30.55,29.42,49.5,89,100,3.04,ZA,2020-10-21 00:08:49
202,Kulhudhuffushi,6.62,73.07,81.64,77,71,10.83,MV,2020-10-21 00:08:49
203,Luxor,25.7,32.64,78.8,24,0,0.78,EG,2020-10-21 00:08:49
204,Hithadhoo,-0.6,73.08,81.79,81,79,14.52,MV,2020-10-21 00:04:02
205,Namtsy,62.72,129.67,17.6,92,75,4.47,RU,2020-10-21 00:08:49
206,Pacifica,37.61,-122.49,80.6,36,20,14.99,US,2020-10-21 00:04:09
207,Lorengau,-2.02,147.27,86.27,60,49,3.71,PG,2020-10-21 00:04:09
208,Pisco,-13.7,-76.22,64.99,77,2,13.87,PE,2020-10-21 00:04:31
209,Magnitka,55.35,59.7,32.0,97,12,3.65,RU,2020-10-21 00:08:50
210,São José da Coroa Grande,-8.9,-35.15,75.76,82,25,7.76,BR,2020-10-21 00:08:50
211,Port Blair,11.67,92.75,80.78,83,55,13.82,IN,2020-10-21 00:08:51
212,Mackay,-21.15,149.2,80.6,65,40,13.87,AU,2020-10-21 00:08:51
213,Kahului,20.89,-156.47,91.4,43,40,9.17,US,2020-10-21 00:02:34
214,Cayenne,4.93,-52.33,80.6,83,100,5.82,GF,2020-10-21 00:03:35
215,Provideniya,64.38,-173.3,42.8,87,90,11.18,RU,2020-10-21 00:08:52
216,Asău,46.43,26.4,37.4,100,0,1.12,RO,2020-10-21 00:04:40
217,Lovozero,68.0,35.01,26.64,97,86,8.28,RU,2020-10-21 00:08:52
218,Bindura,-17.3,31.33,68.76,36,0,3.18,ZW,2020-10-21 00:08:52
219,Lompoc,34.64,-120.46,62.6,77,75,10.29,US,2020-10-21 00:04:43
220,Kamariótissa,40.48,25.47,60.8,77,75,19.46,GR,2020-10-21 00:08:53
221,Hohhot,40.81,111.65,24.8,58,0,4.47,CN,2020-10-21 00:08:53
222,Vilyuysk,63.76,121.62,16.02,97,84,3.53,RU,2020-10-21 00:08:53
223,Douglas,41.3,-96.17,41.0,100,1,4.7,US,2020-10-21 00:07:48
224,Kadoshkino,54.03,44.42,32.43,96,62,10.87,RU,2020-10-21 00:08:54
225,Abbeville,50.1,1.83,57.99,77,100,14.5,FR,2020-10-21 00:08:54
226,Laguna,38.42,-121.42,89.01,18,1,3.36,US,2020-10-21 00:08:55
227,Tual,-5.67,132.75,77.59,89,100,12.66,ID,2020-10-21 00:07:03
228,Vostok,46.49,135.88,43.59,63,67,4.32,RU,2020-10-21 00:04:00
229,Sinnamary,5.38,-52.95,80.65,79,100,13.56,GF,2020-10-21 00:08:55
230,Santa Cruz de la Sierra,-17.8,-63.17,86.0,55,40,10.29,BO,2020-10-21 00:08:56
231,Saint Lawrence,36.06,14.2,64.0,77,31,6.93,MT,2020-10-21 00:08:56
232,Pontianak,-0.03,109.33,80.26,85,86,3.13,ID,2020-10-21 00:08:56
233,Shanghai,31.22,121.46,69.01,88,99,4.47,CN,2020-10-21 00:02:00
234,Tessalit,20.2,1.01,81.63,16,0,7.43,ML,2020-10-21 00:08:56
235,Cervo,43.67,-7.41,57.0,91,100,4.81,ES,2020-10-21 00:08:57
236,Manjeshwar,12.72,74.89,77.0,94,75,0.43,IN,2020-10-21 00:08:57
237,Tilichiki,60.47,166.1,40.39,88,100,18.5,RU,2020-10-21 00:04:37
238,Kayes,14.0,-11.0,81.79,25,13,3.58,ML,2020-10-21 00:08:58
239,Faya,18.39,42.45,57.2,24,0,4.7,SA,2020-10-21 00:04:53
240,Hofn,64.25,-15.21,36.07,75,1,8.3,IS,2020-10-21 00:03:52
241,Geraldton,-28.77,114.6,64.4,82,90,14.99,AU,2020-10-21 00:08:59
242,Beloha,-25.17,45.05,65.62,73,0,3.98,MG,2020-10-21 00:08:59
243,São José de Ribamar,-2.56,-44.05,80.6,83,51,11.41,BR,2020-10-21 00:08:59
244,Mathbaria,22.29,89.96,77.74,89,99,10.04,BD,2020-10-21 00:08:59
245,Arroyo de la Encomienda,41.61,-4.8,55.0,93,100,10.29,ES,2020-10-21 00:09:00
246,La Ronge,55.1,-105.28,26.6,63,90,2.24,CA,2020-10-21 00:09:00
247,Bariloche,-41.15,-71.31,60.8,31,20,4.7,AR,2020-10-21 00:07:56
248,Khargone,21.82,75.6,77.67,80,5,1.59,IN,2020-10-21 00:09:00
249,Posse,-14.09,-46.37,73.31,75,69,7.85,BR,2020-10-21 00:09:00
250,Zanjān,36.67,48.48,52.92,42,0,6.08,IR,2020-10-21 00:09:01
251,Payson,40.04,-111.73,71.6,19,1,4.7,US,2020-10-21 00:04:19
252,Airai,-8.93,125.41,74.37,42,93,2.98,TL,2020-10-21 00:04:35
253,Suoyarvi,62.08,32.35,25.66,98,69,4.12,RU,2020-10-21 00:09:01
254,Oktyabr'skiy,54.48,53.47,35.76,85,83,5.01,RU,2020-10-21 00:08:19
255,Lagoa,39.05,-27.98,63.41,65,70,28.01,PT,2020-10-21 00:09:02
256,Los Llanos de Aridane,28.66,-17.92,75.2,53,20,11.41,ES,2020-10-21 00:04:59
257,Arman',59.7,150.17,29.35,81,52,4.65,RU,2020-10-21 00:09:02
258,Bani Walid,31.76,13.99,60.19,75,0,4.5,LY,2020-10-21 00:09:02
259,Port Lincoln,-34.73,135.87,61.47,72,9,12.95,AU,2020-10-21 00:02:57
260,Esperance,-33.87,121.9,59.0,100,90,14.99,AU,2020-10-21 00:04:32
261,Orange Cove,36.62,-119.31,87.01,30,1,3.36,US,2020-10-21 00:09:03
262,Alyangula,-13.85,136.42,84.2,74,0,9.17,AU,2020-10-21 00:04:41
263,Havøysund,71.0,24.66,26.6,86,20,6.93,NO,2020-10-21 00:09:03
264,Verkhnyaya Inta,65.98,60.31,20.16,98,99,1.68,RU,2020-10-21 00:04:27
265,Paamiut,61.99,-49.67,36.91,78,100,1.79,GL,2020-10-21 00:07:48
266,Vila Velha,-20.33,-40.29,73.0,94,90,6.93,BR,2020-10-21 00:00:27
267,Severnoye,56.35,78.36,43.47,85,100,12.3,RU,2020-10-21 00:09:04
268,Granada,37.19,-3.61,64.99,93,75,12.75,ES,2020-10-21 00:09:04
269,Belmonte,-15.86,-38.88,73.4,94,75,5.93,BR,2020-10-21 00:08:47
270,Santa Rosa,14.31,121.11,78.8,94,90,5.82,PH,2020-10-21 00:08:37
271,Porto Belo,-27.16,-48.55,73.4,94,20,3.36,BR,2020-10-21 00:09:05
272,Otorohanga,-38.18,175.2,68.0,85,96,5.01,NZ,2020-10-21 00:09:05
273,Acapulco de Juárez,16.86,-99.89,86.0,79,75,8.05,MX,2020-10-21 00:02:01
274,Beringovskiy,63.05,179.32,41.56,87,99,11.92,RU,2020-10-21 00:04:59
275,Chiang Kham,19.52,100.3,68.0,100,75,5.82,TH,2020-10-21 00:09:06
276,Concepción,-36.83,-73.05,55.4,71,9,17.22,CL,2020-10-21 00:09:06
277,Barra de Tecoanapa,16.52,-98.75,82.58,80,98,6.06,MX,2020-10-21 00:09:06
278,João Pinheiro,-17.74,-46.17,65.26,95,99,3.85,BR,2020-10-21 00:09:07
279,Kabalo,-6.05,26.92,69.87,95,100,0.67,CD,2020-10-21 00:09:07
280,Isangel,-19.55,169.27,84.2,66,40,6.93,VU,2020-10-21 00:03:13
281,Lillooet,50.69,-121.94,53.6,54,40,5.82,CA,2020-10-21 00:09:07
282,Fernandópolis,-20.28,-50.25,74.26,82,49,5.73,BR,2020-10-21 00:09:08
283,Moose Factory,51.26,-80.61,30.2,74,1,2.59,CA,2020-10-21 00:09:08
284,Katangli,51.71,143.23,39.63,68,45,10.92,RU,2020-10-21 00:09:08
285,Umluj,25.02,37.27,82.0,35,0,4.65,SA,2020-10-21 00:09:08
286,St Albans,51.75,-0.33,59.0,93,90,9.17,GB,2020-10-21 00:09:08
287,Chapais,49.78,-74.85,33.8,99,90,4.7,CA,2020-10-21 00:09:09
288,Chui,-33.7,-53.46,57.11,78,100,14.74,UY,2020-10-21 00:04:24
289,Arlit,18.74,7.39,86.54,13,0,6.89,NE,2020-10-21 00:04:17
290,Elsfleth,53.24,8.46,55.99,96,100,9.57,DE,2020-10-21 00:09:09
291,Cidreira,-30.18,-50.21,68.16,94,26,6.82,BR,2020-10-21 00:04:34
292,Itoman,26.12,127.67,80.6,69,90,17.22,JP,2020-10-21 00:09:10
293,Zaragoza,41.66,-0.88,64.4,72,100,20.8,ES,2020-10-21 00:08:40
294,Praia da Vitória,38.73,-27.07,62.6,63,40,27.29,PT,2020-10-21 00:04:04
295,Klaksvík,62.23,-6.59,39.2,71,9,4.7,FO,2020-10-21 00:09:10
296,Idenao,4.25,9.0,75.2,100,20,4.7,CM,2020-10-21 00:09:11
297,Yabēlo,4.88,38.08,61.29,85,87,5.7,ET,2020-10-21 00:09:11
298,Ust'-Ilimsk,58.0,102.66,26.69,98,90,4.92,RU,2020-10-21 00:09:11
299,Marawi,8.0,124.29,80.01,85,100,4.0,PH,2020-10-21 00:04:03
300,Tiksi,71.69,128.87,8.67,92,97,10.07,RU,2020-10-21 00:03:21
301,Chanika,-5.42,38.02,66.15,95,72,3.09,TZ,2020-10-21 00:09:12
302,Renqiu,38.7,116.09,52.48,38,0,11.81,CN,2020-10-21 00:09:12
303,Virginia Beach,36.85,-75.98,68.0,88,90,4.7,US,2020-10-21 00:06:52
304,Dudinka,69.41,86.18,6.8,84,40,2.24,RU,2020-10-21 00:04:21
305,Sept-Îles,50.2,-66.38,39.99,86,20,8.05,CA,2020-10-21 00:07:53
306,Ucluelet,48.93,-125.55,54.0,76,40,11.41,CA,2020-10-21 00:07:37
307,Najrān,17.49,44.13,64.4,23,2,6.93,SA,2020-10-21 00:09:13
308,Kiryat Gat,31.61,34.76,73.99,100,0,1.36,IL,2020-10-21 00:04:20
309,Olafsvik,64.89,-23.71,42.89,81,100,11.25,IS,2020-10-21 00:09:14
310,Colares,38.8,-9.45,62.01,97,47,18.72,PT,2020-10-21 00:09:14
311,Stromness,58.97,-3.3,50.0,87,100,23.04,GB,2020-10-21 00:09:14
312,Katastari,37.83,20.77,60.8,93,1,3.36,GR,2020-10-21 00:09:14
313,Awjilah,29.11,21.29,66.87,65,0,11.61,LY,2020-10-21 00:09:14
314,Lüderitz,-26.65,15.16,62.51,50,0,20.22,NA,2020-10-21 00:09:15
315,Nyurba,63.28,118.33,15.46,97,80,4.43,RU,2020-10-21 00:09:15
316,Cap-aux-Meules,47.38,-61.86,55.4,87,75,14.99,CA,2020-10-21 00:09:15
317,Chabahar,25.29,60.64,66.2,63,0,7.11,IR,2020-10-21 00:05:08
318,Nhamundá,-2.19,-56.71,84.72,47,65,2.91,BR,2020-10-21 00:09:16
319,Aykhal,66.0,111.5,-0.4,91,90,2.24,RU,2020-10-21 00:09:16
320,Samarinda,-0.5,117.15,79.2,79,100,2.15,ID,2020-10-21 00:08:03
321,Bud,39.45,-86.18,54.0,100,90,4.7,US,2020-10-21 00:09:17
322,Şuraabad,40.82,49.47,59.0,82,75,13.87,AZ,2020-10-21 00:09:17
323,Narsaq,60.92,-46.05,32.0,92,99,3.36,GL,2020-10-21 00:04:13
324,Yerbogachën,61.28,108.01,20.53,96,100,7.9,RU,2020-10-21 00:09:09
325,Heihe,50.24,127.49,48.2,76,40,11.18,CN,2020-10-21 00:09:17
326,Noyabrsk,63.2,75.45,31.06,99,100,8.7,RU,2020-10-21 00:09:17
327,Muyezerskiy,63.93,31.65,26.55,98,84,5.5,RU,2020-10-21 00:09:18
328,Sterling,39.01,-77.43,68.0,68,40,4.7,US,2020-10-21 00:09:18
329,Bandarbeyla,9.49,50.81,78.28,72,0,8.12,SO,2020-10-21 00:09:18
330,Tyumentsevo,53.32,81.5,39.65,67,81,9.13,RU,2020-10-21 00:09:18
331,Astoria,46.19,-123.83,57.2,71,90,3.36,US,2020-10-21 00:04:59
332,Simpang,-1.27,104.08,77.14,92,71,1.81,ID,2020-10-21 00:09:19
333,Port-Gentil,-0.72,8.78,77.0,94,75,2.24,GA,2020-10-21 00:09:19
334,Kupang,-10.17,123.58,86.0,66,20,9.17,ID,2020-10-21 00:09:19
335,Port Keats,-14.25,129.55,86.83,66,11,8.63,AU,2020-10-21 00:09:20
336,Hamada,34.88,132.08,53.6,93,75,2.24,JP,2020-10-21 00:09:20
337,Rumphi,-11.02,33.86,69.4,56,0,6.8,MW,2020-10-21 00:09:20
338,Betong,5.77,101.07,73.49,91,21,1.41,TH,2020-10-21 00:09:20
339,Tabuk,17.42,121.44,78.13,87,100,3.74,PH,2020-10-21 00:09:20
340,Bara,10.37,10.73,76.21,54,32,5.23,NG,2020-10-21 00:09:21
341,Nishihara,26.18,127.76,80.6,69,90,17.22,JP,2020-10-21 00:09:21
342,Hambantota,6.12,81.12,78.89,83,47,16.93,LK,2020-10-21 00:09:21
343,Merke,42.87,73.18,55.98,33,0,5.12,KZ,2020-10-21 00:09:21
344,Kyaukse,21.6,96.13,78.8,83,90,2.24,MM,2020-10-21 00:09:22
345,Pudozh,61.81,36.53,29.82,98,61,6.2,RU,2020-10-21 00:04:20
346,Ahipara,-35.17,173.17,67.28,56,100,5.73,NZ,2020-10-21 00:08:21
347,Ténenkou,14.46,-4.92,86.23,19,0,5.7,ML,2020-10-21 00:09:22
348,Superior,46.72,-92.1,32.0,95,90,5.82,US,2020-10-21 00:09:22
349,Rāmhormoz,31.28,49.6,64.49,49,0,1.81,IR,2020-10-21 00:09:23
350,East London,-33.02,27.91,58.35,68,5,7.96,ZA,2020-10-21 00:02:27
351,Songjianghe,42.19,127.48,46.87,55,100,6.46,CN,2020-10-21 00:09:23
352,Mkushi,-13.62,29.39,67.35,34,0,3.67,ZM,2020-10-21 00:09:23
353,Nau,40.15,69.37,51.8,50,0,2.24,TJ,2020-10-21 00:09:23
354,Antofagasta,-23.65,-70.4,59.0,82,90,8.05,CL,2020-10-21 00:09:24
355,Bacolod City,10.67,122.95,81.75,82,89,13.42,PH,2020-10-21 00:09:24
356,Narón,43.52,-8.15,60.01,87,20,10.29,ES,2020-10-21 00:09:24
357,Weligama,5.97,80.42,77.97,87,13,10.38,LK,2020-10-21 00:09:07
358,Finnsnes,69.23,17.98,26.01,92,0,13.87,NO,2020-10-21 00:09:24
359,Sandwick,60.0,-1.25,48.2,87,100,26.4,GB,2020-10-21 00:09:25
360,Ubinskoye,55.31,79.68,42.44,80,92,13.11,RU,2020-10-21 00:09:25
361,Ekhabi,53.51,142.97,39.2,72,56,14.5,RU,2020-10-21 00:09:25
362,Burley,42.54,-113.79,60.8,41,1,13.87,US,2020-10-21 00:09:25
363,Faxinal,-24.0,-51.32,66.72,78,45,2.86,BR,2020-10-21 00:09:25
364,Pemba,-12.97,40.52,75.2,88,20,3.36,MZ,2020-10-21 00:09:26
365,Ixtapa,20.7,-105.2,86.0,79,40,8.05,MX,2020-10-21 00:09:26
366,Caravelas,-17.71,-39.25,73.58,92,98,4.61,BR,2020-10-21 00:06:25
367,Talara,-4.58,-81.27,64.13,86,39,11.79,PE,2020-10-21 00:09:26
368,Sharjah city,25.36,55.4,75.2,52,0,2.24,AE,2020-10-21 00:09:27
369,Provincia di Ancona,43.55,13.17,52.0,100,24,3.36,IT,2020-10-21 00:09:27
370,Khāsh,28.22,61.22,47.28,36,0,6.24,IR,2020-10-21 00:09:27
371,Tyret’ Pervaya,53.67,102.31,29.55,98,99,8.41,RU,2020-10-21 00:09:27
372,Boca do Acre,-8.75,-67.4,73.87,97,49,1.9,BR,2020-10-21 00:09:28
373,Chaoyang,41.57,120.46,51.35,41,94,11.81,CN,2020-10-21 00:09:28
374,Necochea,-38.55,-58.74,46.99,80,36,1.99,AR,2020-10-21 00:09:28
375,Southbridge,42.08,-72.03,62.01,96,94,0.27,US,2020-10-21 00:04:36
376,Lucea,18.45,-78.17,82.4,78,40,6.93,JM,2020-10-21 00:09:29
377,Davila,18.47,120.58,82.4,83,75,11.41,PH,2020-10-21 00:08:25
378,Aldama,22.92,-98.07,81.0,83,27,1.99,MX,2020-10-21 00:09:29
379,Bowen,-20.02,148.23,78.8,65,90,8.05,AU,2020-10-21 00:09:29
380,Severo-Kuril'sk,50.68,156.12,42.69,65,56,25.84,RU,2020-10-21 00:09:30
381,Wawa,9.9,4.42,77.79,61,8,3.0,NG,2020-10-21 00:09:30
382,Port Hueneme,34.15,-119.2,69.8,88,90,10.29,US,2020-10-21 00:08:00
383,Bissorã,12.22,-15.45,78.08,91,50,6.4,GW,2020-10-21 00:09:30
384,Iqaluit,63.75,-68.51,30.2,86,90,13.87,CA,2020-10-21 00:04:27
385,Masuguru,-11.37,38.42,76.01,68,0,5.46,TZ,2020-10-21 00:09:31
386,Arrondissement de Laon,49.57,3.67,55.99,87,100,8.05,FR,2020-10-21 00:09:31
387,Vardø,70.37,31.11,38.52,75,87,5.48,NO,2020-10-21 00:04:35
388,Ishigaki,24.34,124.16,78.8,100,75,20.8,JP,2020-10-21 00:09:31
389,Thinadhoo,0.53,72.93,82.42,78,82,12.35,MV,2020-10-21 00:09:32
390,Peno,56.93,32.74,31.05,98,90,4.03,RU,2020-10-21 00:09:32
391,Las Compuertas,25.45,-108.35,91.0,50,0,5.99,MX,2020-10-21 00:09:32
392,Mil'kovo,54.72,158.62,38.12,69,6,5.99,RU,2020-10-21 00:09:32
393,Zaozyornoye,45.16,33.28,52.57,55,0,8.28,UA,2020-10-21 00:09:33
394,Toba,34.48,136.85,69.01,72,20,6.93,JP,2020-10-21 00:09:33
395,Atocha,-20.93,-66.23,49.59,54,28,12.8,BO,2020-10-21 00:09:33
396,Takoradze,4.88,-1.76,76.5,90,100,9.53,GH,2020-10-21 00:04:04
397,Rondonópolis,-16.47,-54.64,76.89,78,78,6.22,BR,2020-10-21 00:09:33
398,Chegdomyn,51.12,133.02,38.37,76,100,0.58,RU,2020-10-21 00:09:34
399,Hīt,33.64,42.83,73.47,34,0,9.1,IQ,2020-10-21 00:09:34
400,La Oroya,-11.52,-75.9,48.15,67,61,7.36,PE,2020-10-21 00:09:34
401,Toora-Khem,52.47,96.11,24.44,93,99,2.37,RU,2020-10-21 00:09:34
402,Zhigansk,66.77,123.37,15.91,96,100,1.9,RU,2020-10-21 00:09:35
403,Kysyl-Syr,63.9,122.76,21.31,97,100,2.75,RU,2020-10-21 00:09:35
404,Las Vegas,36.17,-115.14,89.6,9,1,1.41,US,2020-10-21 00:06:02
405,Ratnagiri,16.98,73.3,76.91,89,19,3.96,IN,2020-10-21 00:09:35
406,Mandalgovi,45.76,106.27,21.54,82,83,9.8,MN,2020-10-21 00:04:48
407,Adrian,41.9,-84.04,50.0,76,90,10.29,US,2020-10-21 00:07:34
408,Gadung,6.8,124.02,81.97,70,100,2.73,PH,2020-10-21 00:09:36
409,Ndélé,8.41,20.65,72.86,85,100,2.24,CF,2020-10-21 00:09:36
410,Stokmarknes,68.56,14.91,36.0,64,40,7.0,NO,2020-10-21 00:09:36
411,Yamoussoukro,6.82,-5.28,73.4,94,75,2.66,CI,2020-10-21 00:09:37
412,Margate,51.38,1.39,59.0,89,100,4.0,GB,2020-10-21 00:09:37
413,Callaway,30.15,-85.57,81.0,69,1,5.82,US,2020-10-21 00:09:37
414,Samarai,-10.62,150.67,80.47,82,96,8.12,PG,2020-10-21 00:07:57
415,Khovd,48.01,91.64,27.57,84,7,1.16,MN,2020-10-21 00:09:37
416,Altay,47.87,88.12,35.74,69,9,2.89,CN,2020-10-21 00:04:45
417,Yuanping,38.72,112.76,40.5,56,0,13.67,CN,2020-10-21 00:09:38
418,Djibouti,11.5,42.5,80.6,44,1,3.36,DJ,2020-10-21 00:09:38
419,Itapetinga,-15.25,-40.25,69.42,96,75,4.27,BR,2020-10-21 00:09:38
420,Lugazi,0.38,32.92,69.8,88,20,3.36,UG,2020-10-21 00:09:39
421,Riyadh,24.69,46.72,64.4,26,0,4.7,SA,2020-10-21 00:07:06
422,Benjamin Constant,-4.38,-70.03,80.6,94,20,2.04,BR,2020-10-21 00:09:39
423,Mogadishu,2.04,45.34,79.03,81,25,11.74,SO,2020-10-21 00:09:39
424,Sorong,-0.88,131.25,81.16,78,61,6.22,ID,2020-10-21 00:09:39
425,Touros,-5.2,-35.46,77.0,83,20,3.36,BR,2020-10-21 00:09:40
426,Slave Lake,55.28,-114.77,32.0,84,1,4.7,CA,2020-10-21 00:06:45
427,Palmeira,-25.43,-50.01,64.67,88,34,4.61,BR,2020-10-21 00:09:40
428,Matamoros,25.53,-103.25,91.4,16,40,10.04,MX,2020-10-21 00:09:40
429,Tkibuli,42.35,43.0,57.2,93,75,2.24,GE,2020-10-21 00:09:41
430,Menongue,-14.66,17.69,69.69,23,0,7.18,AO,2020-10-21 00:09:41
431,Gerede,40.8,32.2,44.29,94,60,4.32,TR,2020-10-21 00:09:41
432,Melo,-32.37,-54.18,56.35,78,94,19.22,UY,2020-10-21 00:09:41
433,Iquique,-20.22,-70.14,64.4,68,90,3.36,CL,2020-10-21 00:09:42
434,Porto Walter,-8.27,-72.74,74.52,94,99,3.56,BR,2020-10-21 00:09:42
435,Santa Lucía,27.91,-15.54,75.2,73,75,6.93,ES,2020-10-21 00:09:42
436,Toamasina,-18.17,49.38,69.8,94,40,2.24,MG,2020-10-21 00:09:42
437,Bahía Solano,6.23,-77.4,76.64,85,33,2.84,CO,2020-10-21 00:09:42
438,Sibu,2.3,111.82,75.2,94,40,3.36,MY,2020-10-21 00:09:43
439,Salinópolis,-0.61,-47.36,81.14,77,22,12.84,BR,2020-10-21 00:09:43
440,Ilulissat,69.22,-51.1,35.6,80,100,11.41,GL,2020-10-21 00:06:06
441,Hostotipaquillo,21.07,-104.07,78.01,59,11,5.99,MX,2020-10-21 00:09:44
442,Yavaros,26.7,-109.52,91.99,41,0,8.01,MX,2020-10-21 00:09:44
443,Samaná,19.21,-69.34,80.6,88,20,4.7,DO,2020-10-21 00:09:44
444,Texas City,29.38,-94.9,80.6,78,20,10.29,US,2020-10-21 00:08:56
445,Aksarka,66.56,67.8,21.52,98,100,5.55,RU,2020-10-21 00:09:44
446,Ust-Kuyga,70.02,135.6,8.58,94,99,6.64,RU,2020-10-21 00:05:37
447,Minas de Barroterán,27.63,-101.28,83.55,47,0,13.69,MX,2020-10-21 00:09:45
448,Krasnoturansk,54.32,91.56,37.4,74,92,4.47,RU,2020-10-21 00:09:45
449,Nurota,40.56,65.69,46.4,52,0,9.17,UZ,2020-10-21 00:09:45
450,Cascais,38.7,-9.42,62.01,97,43,18.14,PT,2020-10-21 00:09:45
451,Moranbah,-22.0,148.05,84.11,40,0,11.43,AU,2020-10-21 00:09:46
452,Zhangye,38.93,100.45,44.76,48,0,6.49,CN,2020-10-21 00:08:41
453,Baraut,29.1,77.27,62.6,77,0,2.57,IN,2020-10-21 00:09:46
454,Mossamedes,-15.2,12.15,67.8,84,72,4.7,AO,2020-10-21 00:09:46
455,Shakawe,-18.37,21.85,70.48,21,0,4.5,BW,2020-10-21 00:09:47
456,Kuandian,40.73,124.78,52.45,76,100,3.91,CN,2020-10-21 00:09:47
457,Griffith,41.53,-87.42,50.0,81,90,16.11,US,2020-10-21 00:09:47
458,Pemangkat,1.17,108.97,80.58,83,99,3.83,ID,2020-10-21 00:09:47
459,Verkhovazh'ye,60.75,42.05,29.75,96,67,10.83,RU,2020-10-21 00:09:48
460,Lakes Entrance,-37.88,147.98,61.0,80,100,6.11,AU,2020-10-21 00:08:45
461,Gawler,-34.6,138.73,71.01,56,77,3.0,AU,2020-10-21 00:09:48
462,St. George's,12.06,-61.75,84.2,79,13,17.22,GD,2020-10-21 00:09:48
463,Sitka,57.05,-135.33,44.6,70,40,5.82,US,2020-10-21 00:04:02
464,Kununurra,-15.77,128.73,87.8,66,0,8.05,AU,2020-10-21 00:09:49
465,Avera,33.19,-82.53,71.6,78,1,4.7,US,2020-10-21 00:09:49
466,Coquimbo,-29.95,-71.34,55.4,87,20,10.29,CL,2020-10-21 00:05:25
467,Cocobeach,1.0,9.58,77.0,100,75,2.24,GA,2020-10-21 00:09:49
468,Soe,-9.86,124.28,81.68,42,90,3.13,ID,2020-10-21 00:09:49
469,Maraã,-1.83,-65.37,78.03,82,73,1.66,BR,2020-10-21 00:09:50
470,Rosetown,51.55,-108.0,26.01,67,85,5.93,CA,2020-10-21 00:09:50
471,Meulaboh,4.14,96.13,77.0,84,60,4.85,ID,2020-10-21 00:08:01
472,Maceió,-9.67,-35.74,73.4,83,13,4.7,BR,2020-10-21 00:09:50
473,Faanui,-16.48,-151.75,78.84,81,45,15.01,PF,2020-10-21 00:04:09
474,Santa Maria,-29.68,-53.81,67.42,81,4,13.31,BR,2020-10-21 00:09:51
475,Glendive,47.11,-104.71,35.01,80,90,8.05,US,2020-10-21 00:09:51
476,Pampa,35.54,-100.96,75.2,56,1,12.75,US,2020-10-21 00:09:51
477,Samut Songkhram,13.4,99.96,77.0,81,100,7.14,TH,2020-10-21 00:09:52
478,Mayo,38.89,-76.51,64.99,100,1,4.7,US,2020-10-21 00:09:52
479,Sovetskaya,44.78,41.17,43.36,80,0,3.83,RU,2020-10-21 00:09:52
480,Denpasar,-8.65,115.22,78.8,100,75,3.36,ID,2020-10-21 00:05:59
481,Ruteng,-8.61,120.47,73.17,68,74,0.65,ID,2020-10-21 00:09:53
482,Bone,51.97,12.14,52.0,89,100,8.21,DE,2020-10-21 00:09:53
483,Ferme-Neuve,46.7,-75.45,36.81,83,96,1.34,CA,2020-10-21 00:09:53
484,Kapoeta,4.77,33.59,77.99,69,85,2.84,SS,2020-10-21 00:09:53
485,Carutapera,-1.2,-46.02,77.85,82,26,6.33,BR,2020-10-21 00:09:53
486,Alta Floresta,-9.88,-56.09,82.42,53,96,1.77,BR,2020-10-21 00:09:54
487,Kemijärvi,66.71,27.43,29.3,98,100,1.7,FI,2020-10-21 00:09:54
488,‘Āhuimanu,21.44,-157.84,84.2,62,75,14.99,US,2020-10-21 00:09:54
489,Luena,-11.78,19.92,64.35,68,0,6.17,AO,2020-10-21 00:09:54
490,Mazatlán,23.22,-106.42,88.0,79,20,6.93,MX,2020-10-21 00:09:06
491,Quthing,-30.4,27.7,53.55,66,54,5.66,LS,2020-10-21 00:09:55
492,Kaseda-shirakame,31.42,130.32,68.0,64,40,11.41,JP,2020-10-21 00:07:16
493,Saint-François,46.42,3.91,62.6,59,100,18.34,FR,2020-10-21 00:04:33
494,Redmond,47.67,-122.12,59.0,82,61,1.23,US,2020-10-21 00:08:37
495,Kutum,14.2,24.67,73.31,19,0,8.23,SD,2020-10-21 00:09:56
496,Norman Wells,65.28,-126.83,23.0,85,75,12.75,CA,2020-10-21 00:08:47
497,Cuencamé de Ceniceros,24.87,-103.7,78.06,30,0,6.85,MX,2020-10-21 00:09:56
498,Cabedelo,-6.98,-34.83,77.0,83,40,5.82,BR,2020-10-21 00:00:24
499,Buin,-33.73,-70.75,71.6,35,0,18.34,CL,2020-10-21 00:09:56
500,Sioux Falls,43.55,-96.7,42.8,87,90,3.36,US,2020-10-21 00:05:00
501,Cedar Rapids,42.01,-91.64,44.01,100,90,4.45,US,2020-10-21 00:08:15
502,Mbaïki,3.87,17.99,70.02,97,64,0.76,CF,2020-10-21 00:09:57
503,Lata,40.16,-8.33,61.0,99,69,10.0,PT,2020-10-21 00:09:57
504,Nalobikha,53.2,84.6,37.18,74,64,7.58,RU,2020-10-21 00:09:57
505,Evensk,61.95,159.23,34.63,86,92,5.68,RU,2020-10-21 00:09:57
506,Luwuk,-0.95,122.79,82.78,64,82,5.73,ID,2020-10-21 00:09:58
507,Abu Samrah,35.3,37.18,61.79,56,0,2.73,SY,2020-10-21 00:09:58
508,Codrington,-38.27,141.97,56.71,72,18,5.03,AU,2020-10-21 00:04:50
509,Fort Dodge,42.5,-94.17,39.2,93,90,8.05,US,2020-10-21 00:09:58
510,Changli,39.7,119.15,55.06,41,31,13.69,CN,2020-10-21 00:09:59
511,Honiara,-9.43,159.95,86.0,70,20,9.17,SB,2020-10-21 00:03:33
512,Kieta,-6.22,155.63,85.1,66,56,3.51,PG,2020-10-21 00:09:59
513,Severo-Yeniseyskiy,60.37,93.04,25.45,99,98,3.94,RU,2020-10-21 00:04:46
514,Port-Cartier,50.03,-66.87,39.99,86,20,8.05,CA,2020-10-21 00:04:34
515,Gubkinskiy,64.43,76.5,27.75,98,100,9.98,RU,2020-10-21 00:10:00
516,Cascavel,-24.96,-53.46,67.59,75,12,4.29,BR,2020-10-21 00:06:54
517,Burē,10.7,37.07,53.6,91,1,3.02,ET,2020-10-21 00:10:00
518,Djambala,-2.54,14.75,63.37,100,100,3.6,CG,2020-10-21 00:10:00
519,Sliema,35.91,14.5,64.0,77,16,6.93,MT,2020-10-21 00:10:01
520,Shache,38.42,77.24,38.98,71,0,1.36,CN,2020-10-21 00:10:01
521,Doka,13.52,35.77,75.58,41,0,2.59,SD,2020-10-21 00:10:01
522,Mareeba,-17.0,145.43,86.0,54,40,9.17,AU,2020-10-21 00:10:02
523,Roblin,51.23,-101.36,26.29,98,100,8.66,CA,2020-10-21 00:10:02
524,Sørland,67.67,12.69,39.2,69,40,4.7,NO,2020-10-21 00:10:02
525,Porto-Novo,6.5,2.6,77.97,89,100,6.35,BJ,2020-10-21 00:04:25
526,Lucapa,-8.42,20.74,65.88,94,65,2.73,AO,2020-10-21 00:10:03
527,Fukuechō,32.69,128.84,68.0,68,75,5.82,JP,2020-10-21 00:10:03
528,Imbituba,-28.24,-48.67,71.6,94,20,8.05,BR,2020-10-21 00:05:04
529,Ngunguru,-35.62,174.5,69.01,65,81,5.01,NZ,2020-10-21 00:05:06
530,San Vicente,-26.62,-54.13,71.17,72,86,2.82,AR,2020-10-21 00:06:33
531,Lakewood,39.7,-105.08,59.0,42,100,1.99,US,2020-10-21 00:06:03
532,Vacha,55.8,42.77,32.47,97,85,11.79,RU,2020-10-21 00:10:04
533,Hünfeld,50.68,9.77,53.01,85,100,1.01,DE,2020-10-21 00:10:05
534,Aden,12.78,45.04,84.25,55,0,2.91,YE,2020-10-21 00:10:05
535,Vernon,50.26,-119.27,46.4,75,90,6.93,CA,2020-10-21 00:10:06
536,Ballina,-28.87,153.57,77.0,53,3,5.82,AU,2020-10-21 00:10:06
537,Nizhniy Odes,63.64,54.86,25.52,99,96,3.67,RU,2020-10-21 00:10:06
538,Chone,-0.68,-80.1,75.25,76,62,7.45,EC,2020-10-21 00:10:06
539,Zyryanka,65.75,150.85,15.3,96,22,4.81,RU,2020-10-21 00:08:01
540,Champerico,14.3,-91.92,73.4,100,90,6.93,GT,2020-10-21 00:10:07
541,Paciran,-6.88,112.38,82.67,73,34,4.79,ID,2020-10-21 00:10:07
542,Arrondissement de Saint-Gaudens,43.08,0.67,75.2,33,40,19.46,FR,2020-10-21 00:10:07
543,Fort Walton Beach,30.41,-86.62,84.2,61,75,4.7,US,2020-10-21 00:10:07
544,Colorado Springs,38.83,-104.82,68.0,12,1,4.7,US,2020-10-21 00:10:08
545,Naze,28.37,129.48,78.8,78,75,16.11,JP,2020-10-21 00:10:08
546,Mineros,-17.12,-63.23,86.0,55,40,10.29,BO,2020-10-21 00:10:08
547,Guanare,9.04,-69.74,76.15,90,77,1.81,VE,2020-10-21 00:10:09
548,Santiago,-33.46,-70.65,71.6,35,0,18.34,CL,2020-10-21 00:10:02
549,Taltal,-25.4,-70.48,60.78,66,26,4.23,CL,2020-10-21 00:07:56
550,Bilma,18.69,12.92,79.56,16,0,4.72,NE,2020-10-21 00:04:35
551,Nybro,56.74,15.91,51.01,87,100,5.82,SE,2020-10-21 00:10:10
552,Kochubey,44.39,46.58,55.35,60,76,8.37,RU,2020-10-21 00:10:10
553,Roald,62.58,6.13,42.8,87,100,14.99,NO,2020-10-21 00:10:10
554,Albacete,38.83,-2.0,61.0,64,87,10.0,ES,2020-10-21 00:10:10
555,Bairiki Village,1.33,172.98,86.0,70,40,10.29,KI,2020-10-21 00:04:44
556,Lengshuijiang,27.69,111.43,54.12,83,97,1.95,CN,2020-10-21 00:06:43
557,Maués,-3.38,-57.72,78.89,74,78,0.96,BR,2020-10-21 00:10:11
558,Curvelo,-18.76,-44.43,65.62,95,100,5.14,BR,2020-10-21 00:10:11
559,Forio,40.73,13.86,60.8,81,8,2.24,IT,2020-10-21 00:10:11
560,Kloulklubed,7.04,134.26,78.8,88,90,4.7,PW,2020-10-21 00:08:40
561,Moryakovskiy Zaton,56.7,84.65,41.0,76,96,9.01,RU,2020-10-21 00:10:12
562,Parit Buntar,5.13,100.49,78.8,94,20,2.24,MY,2020-10-21 00:10:12
563,Vestmannaeyjar,63.44,-20.27,37.76,74,95,8.63,IS,2020-10-21 00:10:12
564,Abong Mbang,3.98,13.18,67.3,94,81,2.06,CM,2020-10-21 00:10:13
565,Varna,43.22,27.92,51.8,76,5,1.12,BG,2020-10-21 00:10:13
566,Abhā,18.22,42.51,57.2,24,0,4.7,SA,2020-10-21 00:10:13
567,Dhidhdhoo,6.88,73.1,81.43,80,55,11.99,MV,2020-10-21 00:10:13
568,Krasnosel'kup,65.7,82.47,25.14,98,100,9.89,RU,2020-10-21 00:10:14
569,Inírida,3.87,-67.92,77.74,87,100,1.39,CO,2020-10-21 00:10:14
570,San Cristobal,7.77,-72.22,80.6,78,40,5.82,VE,2020-10-21 00:08:34
571,Batavia,41.85,-88.31,48.99,81,90,10.63,US,2020-10-21 00:09:35
572,Ilhabela,-23.78,-45.36,71.69,87,13,3.56,BR,2020-10-21 00:05:36
573,Abrau-Dyurso,44.69,37.59,44.6,75,40,4.47,RU,2020-10-21 00:10:15
574,Gayéri,12.65,0.49,84.63,38,16,5.46,BF,2020-10-21 00:10:15
575,Manggar,-2.88,108.27,82.04,77,72,3.13,ID,2020-10-21 00:10:15
576,Marathon,44.9,-89.77,33.01,100,90,11.99,US,2020-10-21 00:10:16
