City ID,City,Lat,Lng,Max Temp,Humidity,Cloudiness,Wind Speed,Country,Date
0,Oistins,13.07,-59.53,80.6,78,40,4.7,BB,2020-10-20 04:10:32
1,Sistranda,63.73,8.83,33.8,71,20,14.99,NO,2020-10-20 04:14:20
2,Hilo,19.73,-155.09,80.6,65,1,9.17,US,2020-10-20 04:15:13
3,Yumen,40.28,97.2,59.59,28,26,28.68,CN,2020-10-20 04:16:40
4,Atuona,-9.8,-139.03,78.57,75,1,18.43,PF,2020-10-20 04:16:40
5,Punta Arenas,-53.15,-70.92,39.2,69,20,16.11,CL,2020-10-20 04:12:07
6,Cherskiy,68.75,161.3,22.48,94,73,3.31,RU,2020-10-20 04:16:40
7,Pisco,-13.7,-76.22,62.6,77,0,8.05,PE,2020-10-20 04:16:41
8,Cabo San Lucas,22.89,-109.91,82.99,74,5,4.7,MX,2020-10-20 04:14:28
9,Ternate,0.8,127.4,84.69,66,89,8.41,ID,2020-10-20 04:16:41
10,Kiryat Gat,31.61,34.76,71.01,83,8,1.12,IL,2020-10-20 04:10:44
11,Vaini,-21.2,-175.2,75.2,73,40,10.29,TO,2020-10-20 04:16:42
12,Langham,52.37,-106.97,23.0,57,75,10.29,CA,2020-10-20 04:16:42
13,Tanout,14.97,8.89,81.48,15,0,8.41,NE,2020-10-20 04:16:42
14,Port Alfred,-33.59,26.89,61.81,73,11,20.96,ZA,2020-10-20 04:16:42
15,Bubaque,11.28,-15.83,82.33,86,45,7.27,GW,2020-10-20 04:16:43
16,Dikson,73.51,80.55,24.85,94,98,16.24,RU,2020-10-20 04:16:43
17,Faanui,-16.48,-151.75,79.41,78,31,18.84,PF,2020-10-20 04:16:43
18,Kaitangata,-46.28,169.85,54.79,51,90,7.31,NZ,2020-10-20 04:16:43
19,Saint George,37.1,-113.58,73.4,13,1,1.81,US,2020-10-20 04:06:16
20,Vardø,70.37,31.11,35.6,80,75,12.75,NO,2020-10-20 04:16:44
21,Tuatapere,-46.13,167.68,51.01,67,71,14.0,NZ,2020-10-20 04:16:44
22,Arraial do Cabo,-22.97,-42.03,72.19,83,96,21.77,BR,2020-10-20 04:16:45
23,Bluff,-46.6,168.33,51.01,67,40,14.0,NZ,2020-10-20 04:16:45
24,Albany,42.6,-73.97,57.0,80,100,8.37,US,2020-10-20 04:16:45
25,Hobart,-42.88,147.33,70.0,59,20,13.87,AU,2020-10-20 04:16:17
26,Iqaluit,63.75,-68.51,24.8,85,90,9.17,CA,2020-10-20 04:06:51
27,Mataura,-46.19,168.86,51.01,67,89,14.0,NZ,2020-10-20 04:16:46
28,Rio Grande,-32.03,-52.1,68.0,94,3,5.59,BR,2020-10-20 04:16:46
29,Rikitea,-23.12,-134.97,74.25,77,0,11.7,PF,2020-10-20 04:16:46
30,Baghdad,33.34,44.4,62.6,39,0,5.82,IQ,2020-10-20 04:12:11
31,Bengkulu,-3.8,102.27,85.46,62,100,2.93,ID,2020-10-20 04:16:47
32,Longyearbyen,78.22,15.64,28.4,68,75,3.36,SJ,2020-10-20 04:06:48
33,Mount Gambier,-37.83,140.77,59.0,62,90,8.05,AU,2020-10-20 04:14:08
34,Bethel,41.37,-73.41,53.01,87,1,3.44,US,2020-10-20 04:12:46
35,Río Gallegos,-51.62,-69.22,39.2,64,54,26.4,AR,2020-10-20 04:16:48
36,Jamestown,42.1,-79.24,53.01,100,90,4.7,US,2020-10-20 04:16:48
37,Tuktoyaktuk,69.45,-133.04,21.2,92,90,11.41,CA,2020-10-20 04:16:48
38,Avarua,-21.21,-159.78,78.8,78,61,3.36,CK,2020-10-20 04:14:15
39,Fortuna,40.6,-124.16,55.99,100,90,5.82,US,2020-10-20 04:03:06
40,Champerico,14.3,-91.92,69.01,95,98,1.23,GT,2020-10-20 04:16:49
41,Rostovka,55.38,71.89,47.1,85,92,7.18,RU,2020-10-20 04:16:49
42,Tasiilaq,65.61,-37.64,28.4,92,86,3.36,GL,2020-10-20 04:16:50
43,Hong Kong,22.29,114.16,80.01,61,0,10.0,HK,2020-10-20 04:16:48
44,Progreso,21.28,-89.67,78.8,88,5,10.27,MX,2020-10-20 04:16:50
45,Lebu,-37.62,-73.65,47.86,77,1,14.32,CL,2020-10-20 04:16:50
46,Saskylakh,71.92,114.08,23.27,98,87,3.91,RU,2020-10-20 04:16:51
47,Ahipara,-35.17,173.17,64.45,67,96,9.57,NZ,2020-10-20 04:03:33
48,High Level,58.52,-117.14,14.0,92,5,2.04,CA,2020-10-20 04:16:51
49,New Norfolk,-42.78,147.06,70.0,49,70,3.0,AU,2020-10-20 04:16:51
50,Port Lincoln,-34.73,135.87,62.35,68,81,9.13,AU,2020-10-20 04:16:52
51,Lagoa,39.05,-27.98,63.19,70,2,29.57,PT,2020-10-20 04:07:40
52,Hermanus,-34.42,19.23,57.99,85,31,7.0,ZA,2020-10-20 04:16:52
53,Ushuaia,-54.8,-68.3,35.6,89,75,34.45,AR,2020-10-20 04:16:52
54,Poso,-1.4,120.75,88.32,55,30,5.39,ID,2020-10-20 04:16:52
55,Carnarvon,-24.87,113.63,75.2,60,72,18.34,AU,2020-10-20 04:16:53
56,Safranbolu,41.25,32.69,49.41,82,73,1.61,TR,2020-10-20 04:16:53
57,Guantánamo,20.14,-75.21,77.0,88,20,6.93,CU,2020-10-20 04:16:53
58,Nantucket,41.28,-70.1,57.0,83,90,3.36,US,2020-10-20 04:16:53
59,Sabinas,27.85,-101.12,78.31,56,14,8.7,MX,2020-10-20 04:16:54
60,Esfarāyen,37.08,57.51,37.4,32,0,2.24,IR,2020-10-20 04:16:54
61,Tendō,38.35,140.37,62.6,72,40,2.24,JP,2020-10-20 04:16:54
62,Banda Aceh,5.56,95.32,88.12,57,19,7.02,ID,2020-10-20 04:16:55
63,Chui,-33.7,-53.46,63.39,85,9,14.09,UY,2020-10-20 04:07:08
64,Barrow,71.29,-156.79,24.8,79,90,12.75,US,2020-10-20 04:16:55
65,Cape Town,-33.93,18.42,59.0,93,75,4.7,ZA,2020-10-20 04:15:03
66,Busselton,-33.65,115.33,72.0,55,5,5.99,AU,2020-10-20 04:16:55
67,Kadungora,-7.09,107.89,82.6,61,81,3.78,ID,2020-10-20 04:16:56
68,Itarema,-2.92,-39.92,78.64,80,15,17.81,BR,2020-10-20 04:16:56
69,Gordeyevka,52.96,31.97,35.98,91,42,11.81,RU,2020-10-20 04:16:56
70,Ostrovnoy,68.05,39.51,35.62,83,100,12.73,RU,2020-10-20 04:13:22
71,Saint-Augustin,51.23,-58.65,44.08,79,96,5.86,CA,2020-10-20 04:06:57
72,Callaway,30.15,-85.57,73.4,69,1,6.93,US,2020-10-20 04:16:57
73,Qaanaaq,77.48,-69.36,29.21,86,73,8.95,GL,2020-10-20 04:16:57
74,Namatanai,-3.67,152.43,84.78,69,97,2.01,PG,2020-10-20 04:16:58
75,Cap Malheureux,-19.98,57.61,79.0,66,0,11.99,MU,2020-10-20 04:16:58
76,Yaan,7.38,8.57,71.83,99,85,4.21,NG,2020-10-20 04:16:58
77,Brae,60.4,-1.35,46.4,93,100,32.21,GB,2020-10-20 04:16:58
78,Airai,-8.93,125.41,82.18,33,0,5.53,TL,2020-10-20 04:16:59
79,Coyhaique,-45.58,-72.07,35.6,95,11,3.36,CL,2020-10-20 04:16:59
80,Norman Wells,65.28,-126.83,14.0,85,40,10.29,CA,2020-10-20 04:08:07
81,Ambulu,-8.35,113.61,87.49,59,11,9.1,ID,2020-10-20 04:14:31
82,Plettenberg Bay,-34.05,23.37,57.0,72,100,11.23,ZA,2020-10-20 04:17:00
83,Kalmunai,7.42,81.82,86.38,54,30,3.6,LK,2020-10-20 04:17:00
84,Abong Mbang,3.98,13.18,65.43,98,73,1.83,CM,2020-10-20 04:17:00
85,Yellowknife,62.46,-114.35,26.6,79,90,2.24,CA,2020-10-20 04:12:07
86,Bathsheba,13.22,-59.52,80.6,78,40,4.7,BB,2020-10-20 04:09:10
87,Tiksi,71.69,128.87,14.86,92,100,23.73,RU,2020-10-20 04:17:01
88,Chokurdakh,70.63,147.92,16.36,98,95,5.91,RU,2020-10-20 04:17:01
89,Port Blair,11.67,92.75,83.88,78,51,16.04,IN,2020-10-20 04:17:01
90,Puerto Ayora,-0.74,-90.35,70.0,92,87,5.01,EC,2020-10-20 04:17:02
91,San Miguel,13.48,-88.18,74.19,94,100,1.61,SV,2020-10-20 04:15:48
92,Saint-Philippe,-21.36,55.77,78.8,50,35,4.7,RE,2020-10-20 04:17:02
93,Kapaa,22.08,-159.32,82.4,69,40,6.93,US,2020-10-20 04:06:48
94,Port Elizabeth,-33.92,25.57,60.8,67,70,24.16,ZA,2020-10-20 04:17:03
95,Krasne,49.91,24.61,41.0,93,56,2.24,UA,2020-10-20 04:17:03
96,Kousséri,12.08,15.03,73.4,78,0,5.82,CM,2020-10-20 04:17:03
97,Volterra,43.4,10.86,48.99,95,0,1.74,IT,2020-10-20 04:17:04
98,Bandarbeyla,9.49,50.81,80.33,57,13,6.49,SO,2020-10-20 04:17:04
99,Poconé,-16.26,-56.62,75.34,86,99,4.34,BR,2020-10-20 04:17:04
100,Mercedes,-34.65,-59.43,57.0,98,100,4.0,AR,2020-10-20 04:17:04
101,Irondequoit,43.21,-77.58,54.0,100,90,3.36,US,2020-10-20 04:17:05
102,Balkanabat,39.51,54.37,68.56,20,0,1.7,TM,2020-10-20 04:17:05
103,Ribeira Grande,38.52,-28.7,63.9,69,38,27.0,PT,2020-10-20 04:17:05
104,Naze,28.37,129.48,82.4,74,40,21.92,JP,2020-10-20 04:08:48
105,Salalah,17.02,54.09,78.8,57,40,2.24,OM,2020-10-20 04:13:33
106,Boa Vista,2.82,-60.67,84.2,62,100,6.93,BR,2020-10-20 04:09:33
107,Provideniya,64.38,-173.3,39.2,80,75,4.47,RU,2020-10-20 04:17:06
108,Olinda,-8.01,-34.86,78.8,69,40,10.29,BR,2020-10-20 04:17:07
109,Kavieng,-2.57,150.8,83.55,70,99,3.36,PG,2020-10-20 04:09:42
110,Khatanga,71.97,102.5,13.39,97,81,5.77,RU,2020-10-20 04:17:07
111,Chifeng,42.27,118.96,66.38,24,99,17.81,CN,2020-10-20 04:17:08
112,Zvishavane,-20.33,30.07,65.71,38,0,2.77,ZW,2020-10-20 04:17:08
113,Kahului,20.89,-156.47,87.8,48,20,8.05,US,2020-10-20 04:13:23
114,Olafsvik,64.89,-23.71,38.64,75,60,7.83,IS,2020-10-20 04:17:09
115,Nioro,13.35,-15.75,76.82,70,0,3.51,GM,2020-10-20 04:17:09
116,Indianola,41.36,-93.56,30.99,87,67,4.97,US,2020-10-20 04:17:00
117,Narón,43.52,-8.15,63.0,87,40,5.82,ES,2020-10-20 04:17:09
118,Yulara,-25.24,130.99,86.0,42,22,11.41,AU,2020-10-20 04:17:09
119,Berlevåg,70.86,29.09,35.6,80,40,11.41,NO,2020-10-20 04:17:10
120,Gorahun,7.47,-11.24,71.31,98,2,2.01,SL,2020-10-20 04:17:10
121,Sørland,67.67,12.69,33.8,74,20,3.36,NO,2020-10-20 04:17:11
122,Saint-André-Avellin,45.72,-75.07,43.0,95,100,2.17,CA,2020-10-20 04:17:11
123,Narsaq,60.92,-46.05,33.8,86,98,1.12,GL,2020-10-20 04:17:11
124,Tabas,33.6,56.92,55.4,15,0,2.24,IR,2020-10-20 04:17:11
125,Noumea,-22.28,166.46,86.0,42,49,6.93,NC,2020-10-20 04:17:12
126,Rabat,33.99,-6.84,66.99,72,93,4.7,MA,2020-10-20 04:17:12
127,Presidencia Roque Sáenz Peña,-26.79,-60.44,81.9,47,0,8.9,AR,2020-10-20 04:17:12
128,Gao,16.64,1.64,86.63,18,0,5.48,ML,2020-10-20 04:10:18
129,East Wenatchee Bench,47.43,-120.28,53.01,50,1,17.22,US,2020-10-20 04:17:13
130,Touros,-5.2,-35.46,73.4,88,40,3.36,BR,2020-10-20 04:09:34
131,Upernavik,72.79,-56.15,33.21,91,100,6.08,GL,2020-10-20 04:17:13
132,Santa Rosa,14.31,121.11,80.6,94,90,2.24,PH,2020-10-20 04:17:13
133,Adwa,14.16,38.9,60.67,69,0,2.46,ET,2020-10-20 04:17:14
134,Padang,-0.95,100.35,88.45,53,59,6.2,ID,2020-10-20 04:17:14
135,Katsuura,35.13,140.3,68.0,56,78,5.99,JP,2020-10-20 04:12:30
136,Prince Rupert,54.32,-130.32,48.2,70,90,4.7,CA,2020-10-20 04:17:14
137,Sinnamary,5.38,-52.95,79.27,85,78,10.45,GF,2020-10-20 04:17:15
138,Clyde River,70.47,-68.59,32.0,91,90,16.11,CA,2020-10-20 04:07:00
139,Te Anau,-45.42,167.72,54.14,52,5,6.13,NZ,2020-10-20 04:14:36
140,Tunceli,39.11,39.55,57.2,57,40,2.24,TR,2020-10-20 04:17:15
141,Santa Catarina de Tepehuanes,25.35,-105.73,60.67,44,12,1.59,MX,2020-10-20 04:17:15
142,Butaritari,3.07,172.79,82.53,76,100,11.36,KI,2020-10-20 04:15:11
143,Shingū,33.73,135.98,71.6,46,40,3.36,JP,2020-10-20 04:17:16
144,Castro,-24.79,-50.01,63.3,91,66,9.4,BR,2020-10-20 04:17:16
145,Dunajská Streda,47.99,17.61,39.99,93,20,6.93,SK,2020-10-20 04:17:17
146,Caravelas,-17.71,-39.25,71.67,86,100,2.3,BR,2020-10-20 04:07:42
147,Atar,20.52,-13.05,82.58,27,0,7.34,MR,2020-10-20 04:13:50
148,Semnan,35.57,53.4,61.34,27,0,2.39,IR,2020-10-20 04:17:17
149,Codrington,-38.27,141.97,56.89,74,88,8.48,AU,2020-10-20 04:07:38
150,Harar,9.31,42.13,62.24,57,0,2.48,ET,2020-10-20 04:17:18
151,Chardara,41.25,67.97,63.07,28,0,1.61,KZ,2020-10-20 04:17:18
152,Fare,-16.7,-151.02,79.9,77,28,16.08,PF,2020-10-20 04:17:18
153,Husavik,66.04,-17.34,28.4,86,80,4.05,IS,2020-10-20 04:17:19
154,George Town,5.41,100.34,86.0,74,20,4.7,MY,2020-10-20 04:17:19
155,Genhe,50.78,121.52,46.56,55,100,5.46,CN,2020-10-20 04:17:19
156,Saint Paul Harbor,57.79,-152.41,42.8,60,20,8.05,US,2020-10-20 04:17:20
157,Mar del Plata,-38.0,-57.56,53.01,62,5,9.17,AR,2020-10-20 04:17:20
158,Hauterive,46.09,3.45,59.0,62,100,25.28,FR,2020-10-20 04:17:20
159,Los Llanos de Aridane,28.66,-17.92,77.0,73,84,16.11,ES,2020-10-20 04:17:20
160,Maceió,-9.67,-35.74,71.6,94,40,3.36,BR,2020-10-20 04:11:38
161,Misratah,32.38,15.09,69.49,54,13,9.4,LY,2020-10-20 04:17:21
162,Mahébourg,-20.41,57.7,77.0,69,40,12.75,MU,2020-10-20 04:17:21
163,Qui Nhon,13.77,109.23,81.79,82,100,7.83,VN,2020-10-20 04:17:22
164,Varhaug,58.61,5.65,46.0,95,100,5.01,NO,2020-10-20 04:17:22
165,Bredasdorp,-34.53,20.04,55.4,87,53,9.17,ZA,2020-10-20 04:17:22
166,Taunsa,30.7,70.65,85.23,12,0,3.13,PK,2020-10-20 04:17:22
167,Rosetta,31.4,30.42,73.4,73,5,9.17,EG,2020-10-20 04:17:23
168,Namtsy,62.72,129.67,14.0,92,40,4.05,RU,2020-10-20 04:17:23
169,Banepā,27.63,85.52,73.4,73,40,2.24,NP,2020-10-20 04:17:23
170,Yuzhno-Kurilsk,44.03,145.86,52.36,66,27,20.38,RU,2020-10-20 04:17:23
171,Nome,64.5,-165.41,37.4,93,90,2.01,US,2020-10-20 04:17:24
172,Chiredzi,-21.05,31.67,67.53,53,0,2.42,ZW,2020-10-20 04:17:24
173,Shumskiy,54.83,99.13,34.03,69,100,3.47,RU,2020-10-20 04:17:24
174,Rawson,-43.3,-65.1,50.68,47,0,8.68,AR,2020-10-20 04:12:11
175,Pevek,69.7,170.31,26.58,93,21,14.29,RU,2020-10-20 04:17:25
176,Lorengau,-2.02,147.27,84.85,66,100,4.32,PG,2020-10-20 04:10:12
177,Manavālakurichi,8.13,77.3,80.6,94,75,4.7,IN,2020-10-20 04:17:25
178,Poço Verde,-10.71,-38.18,65.75,95,73,4.76,BR,2020-10-20 04:17:26
179,Ponta do Sol,32.67,-17.1,71.6,83,75,28.86,PT,2020-10-20 04:13:41
180,Deder,9.32,41.45,57.38,62,0,3.15,ET,2020-10-20 04:17:26
181,Fowa,8.92,6.4,74.19,90,69,2.17,NG,2020-10-20 04:17:26
182,Severo-Kuril'sk,50.68,156.12,41.36,67,90,16.84,RU,2020-10-20 04:11:25
183,Buala,-8.14,159.59,85.06,71,94,2.57,SB,2020-10-20 04:17:27
184,Sept-Îles,50.2,-66.38,41.0,100,90,4.7,CA,2020-10-20 04:13:08
185,Chibuto,-24.69,33.53,70.21,58,0,11.5,MZ,2020-10-20 04:17:28
186,Hay River,60.82,-115.8,19.4,73,20,2.24,CA,2020-10-20 04:10:15
187,Semīrom,31.42,51.57,47.16,35,0,2.48,IR,2020-10-20 04:17:28
188,Camaçari,-12.7,-38.32,78.8,83,40,6.93,BR,2020-10-20 04:15:45
189,Souillac,-20.52,57.52,77.0,69,40,12.75,MU,2020-10-20 04:17:29
190,Nikolskoye,59.7,30.79,34.0,80,90,11.18,RU,2020-10-20 04:17:29
191,Dongsheng,39.82,109.98,56.5,32,96,21.97,CN,2020-10-20 04:17:29
192,Ilulissat,69.22,-51.1,37.4,74,100,6.93,GL,2020-10-20 04:08:37
193,Belmopan,17.25,-88.77,75.0,85,36,1.16,BZ,2020-10-20 04:17:29
194,Kyren,51.68,102.14,29.07,86,62,1.54,RU,2020-10-20 04:17:30
195,Beringovskiy,63.05,179.32,39.47,93,96,11.77,RU,2020-10-20 04:12:28
196,Broken Hill,-31.95,141.43,73.4,25,95,6.93,AU,2020-10-20 04:17:30
197,Tanete,-3.94,119.78,94.5,41,42,8.28,ID,2020-10-20 04:17:31
198,Saldanha,-33.01,17.94,51.8,81,58,1.12,ZA,2020-10-20 04:07:46
199,Saint Peter,13.25,-59.62,80.6,78,40,4.7,BB,2020-10-20 04:17:31
200,Paraná,-31.73,-60.52,71.01,72,42,11.01,AR,2020-10-20 04:17:31
201,Bambous Virieux,-20.34,57.76,79.0,69,40,12.75,MU,2020-10-20 04:17:31
202,Torbay,47.67,-52.73,48.99,87,20,9.17,CA,2020-10-20 04:17:32
203,Byron Bay,-28.65,153.62,73.4,53,40,14.99,AU,2020-10-20 04:17:32
204,Ancud,-41.87,-73.82,43.0,93,75,6.93,CL,2020-10-20 04:17:32
205,Ust-Kuyga,70.02,135.6,15.35,95,100,7.45,RU,2020-10-20 04:17:33
206,Okhotsk,59.38,143.3,27.81,77,6,20.74,RU,2020-10-20 04:17:33
207,Pimentel,-6.84,-79.93,61.7,89,67,10.16,PE,2020-10-20 04:17:33
208,Vuktyl,63.86,57.31,31.21,99,100,7.96,RU,2020-10-20 04:17:33
209,Navahrudak,53.6,25.83,34.68,100,26,10.67,BY,2020-10-20 04:17:34
210,Dalby,-27.18,151.27,84.99,24,84,1.01,AU,2020-10-20 04:17:34
211,Lüderitz,-26.65,15.16,57.27,68,0,22.1,NA,2020-10-20 04:17:34
212,Srednekolymsk,67.45,153.68,20.57,96,98,2.17,RU,2020-10-20 04:08:34
213,Tataouine,32.93,10.45,59.0,72,0,4.21,TN,2020-10-20 04:17:35
214,Batagay,67.63,134.63,12.0,94,100,4.43,RU,2020-10-20 04:13:41
215,Troutdale,45.54,-122.39,57.99,67,40,5.82,US,2020-10-20 04:17:35
216,Nanortalik,60.14,-45.24,35.02,91,100,3.38,GL,2020-10-20 04:09:14
217,Cayenne,4.93,-52.33,78.8,88,42,3.36,GF,2020-10-20 04:17:35
218,Verkhoyansk,67.54,133.38,14.76,89,100,3.44,RU,2020-10-20 04:17:36
219,Duku,11.24,4.91,77.36,65,1,4.18,NG,2020-10-20 04:17:36
220,Flinders,-34.58,150.86,70.0,66,71,4.0,AU,2020-10-20 04:09:02
221,Vila,42.03,-8.16,55.0,95,87,5.99,PT,2020-10-20 04:17:37
222,Khasan,42.43,130.64,60.57,48,0,6.55,RU,2020-10-20 04:17:37
223,Emerald,-23.53,148.17,91.99,29,51,9.17,AU,2020-10-20 04:17:37
224,Sungai Penuh,-2.08,101.38,81.34,60,96,1.05,ID,2020-10-20 04:17:38
225,Itaituba,-4.28,-55.98,79.61,57,69,1.48,BR,2020-10-20 04:17:38
226,Aksarka,66.56,67.8,13.12,95,0,4.41,RU,2020-10-20 04:17:38
227,Lubango,-14.92,13.49,63.54,39,10,5.68,AO,2020-10-20 04:17:38
228,Olovo,44.13,18.58,32.0,100,75,2.24,BA,2020-10-20 04:15:05
229,Tarauacá,-8.16,-70.77,73.8,84,53,2.3,BR,2020-10-20 04:17:39
230,Raudeberg,61.99,5.14,43.0,64,100,9.6,NO,2020-10-20 04:17:39
231,Macusani,-14.08,-70.43,39.0,80,100,1.95,PE,2020-10-20 04:17:39
232,Tibati,6.47,12.63,63.54,88,34,2.37,CM,2020-10-20 04:17:40
233,Nianzishan,47.52,122.88,48.99,95,96,10.4,CN,2020-10-20 04:17:40
234,Palmer,42.16,-72.33,53.6,87,90,3.36,US,2020-10-20 04:16:04
235,Leningradskiy,69.38,178.42,25.77,90,27,6.78,RU,2020-10-20 04:08:24
236,Plouzané,48.38,-4.62,59.0,93,90,21.92,FR,2020-10-20 04:15:41
237,Chake Chake,-5.25,39.77,77.68,75,20,7.38,TZ,2020-10-20 04:17:41
238,Evensk,61.95,159.23,37.89,83,100,14.94,RU,2020-10-20 04:17:41
239,Hithadhoo,-0.6,73.08,82.67,78,89,12.84,MV,2020-10-20 04:17:42
240,Bellevue,47.61,-122.2,52.0,87,90,5.82,US,2020-10-20 04:16:19
241,Sitka,57.05,-135.33,42.8,87,90,8.05,US,2020-10-20 04:17:42
242,Lavrentiya,65.58,-171.0,33.69,81,1,5.12,RU,2020-10-20 04:17:42
243,Xiaoshi,41.3,124.12,69.8,40,2,17.9,CN,2020-10-20 04:17:43
244,Hasaki,35.73,140.83,68.0,63,75,14.99,JP,2020-10-20 04:17:43
245,Voh,-20.97,164.7,77.79,60,42,5.1,NC,2020-10-20 04:17:44
246,Krasnosel'kup,65.7,82.47,23.05,98,100,9.69,RU,2020-10-20 04:13:25
247,Shubarkuduk,49.14,56.49,50.67,44,83,12.33,KZ,2020-10-20 04:17:44
248,Hervey Bay,-25.3,152.85,82.0,51,75,12.75,AU,2020-10-20 04:08:03
249,Talnakh,69.49,88.4,14.0,85,40,6.71,RU,2020-10-20 04:11:36
250,Imbituba,-28.24,-48.67,71.6,88,75,9.17,BR,2020-10-20 04:17:44
251,Batī,11.18,40.02,66.51,53,0,4.23,ET,2020-10-20 04:17:45
252,Nacala,-14.54,40.67,75.43,82,0,3.0,MZ,2020-10-20 04:13:03
253,Marzuq,14.4,46.47,67.93,24,0,3.31,YE,2020-10-20 04:17:45
254,Bozeman,45.68,-111.04,46.0,87,90,5.82,US,2020-10-20 04:13:09
255,Port-Gentil,-0.72,8.78,78.51,85,82,12.12,GA,2020-10-20 04:12:40
256,Kolār,13.13,78.13,73.4,100,75,4.7,IN,2020-10-20 04:17:46
257,Praia,14.92,-23.51,78.8,69,63,8.05,CV,2020-10-20 04:15:09
258,Jiangmen,22.58,113.08,75.99,69,26,5.99,CN,2020-10-20 04:17:47
259,Sakakah,29.97,40.21,62.6,18,0,6.26,SA,2020-10-20 04:17:47
260,Meadow Lake,34.8,-106.54,64.4,15,1,2.46,US,2020-10-20 04:08:04
261,Tortolì,39.93,9.66,57.2,82,20,10.29,IT,2020-10-20 04:17:48
262,Port Augusta,-32.5,137.77,77.0,41,92,10.29,AU,2020-10-20 04:17:48
263,Methóni,36.82,21.7,64.99,82,40,4.43,GR,2020-10-20 04:17:48
264,Murray Bridge,-35.12,139.27,73.99,53,100,3.0,AU,2020-10-20 04:16:32
265,Khovd,48.01,91.64,29.98,79,23,2.77,MN,2020-10-20 04:17:49
266,Muros,42.78,-9.06,61.0,90,100,7.0,ES,2020-10-20 04:08:09
267,Safford,32.83,-109.71,71.6,14,1,9.17,US,2020-10-20 04:17:49
268,Marsá Maţrūḩ,31.35,27.25,69.8,73,49,3.98,EG,2020-10-20 04:17:49
269,Port Hawkesbury,45.62,-61.35,57.2,100,90,8.05,CA,2020-10-20 04:17:49
270,Half Moon Bay,37.46,-122.43,63.0,93,90,5.44,US,2020-10-20 04:08:23
271,El Congo,13.91,-89.5,72.0,100,94,1.68,SV,2020-10-20 04:17:50
272,Redwater,33.36,-94.25,69.8,100,75,3.36,US,2020-10-20 04:15:02
273,East London,-33.02,27.91,60.8,77,20,18.34,ZA,2020-10-20 04:17:51
274,Gambēla,8.25,34.58,69.04,82,19,3.4,ET,2020-10-20 04:17:51
275,College,64.86,-147.8,21.99,85,90,1.88,US,2020-10-20 04:08:27
276,Comodoro Rivadavia,-45.87,-67.5,51.8,40,0,12.75,AR,2020-10-20 04:13:59
277,Bilma,18.69,12.92,75.42,19,0,1.5,NE,2020-10-20 04:17:52
278,Yārāda,17.65,83.27,86.0,74,40,4.7,IN,2020-10-20 04:17:52
279,Skerries,53.58,-6.11,55.4,93,75,10.29,IE,2020-10-20 04:17:52
280,Baykit,61.67,96.37,26.49,92,91,5.97,RU,2020-10-20 04:17:52
281,Gainesville,29.65,-82.32,73.4,100,90,6.93,US,2020-10-20 04:15:25
282,Itupiranga,-5.13,-49.33,79.18,68,95,5.03,BR,2020-10-20 04:17:53
283,Chornukhy,50.27,32.94,37.53,85,0,7.38,UA,2020-10-20 04:17:53
284,Vila do Maio,15.13,-23.22,78.8,69,46,8.05,CV,2020-10-20 04:17:53
285,Kerchevskiy,59.95,56.29,34.48,94,100,4.97,RU,2020-10-20 04:17:53
286,Malbork,54.04,19.03,41.0,90,77,5.77,PL,2020-10-20 04:17:54
287,San Ignacio,17.16,-89.07,75.2,94,20,0.92,BZ,2020-10-20 04:17:54
288,Chengde,40.97,117.94,65.14,28,100,4.76,CN,2020-10-20 04:17:54
289,Bariloche,-41.15,-71.31,41.0,55,44,3.6,AR,2020-10-20 04:08:18
290,Murchison,-41.8,172.33,60.51,54,100,4.29,NZ,2020-10-20 04:17:54
291,Shelburne,44.08,-80.2,42.01,100,90,2.24,CA,2020-10-20 04:15:02
292,Vitim,59.45,112.56,29.5,90,99,11.23,RU,2020-10-20 04:17:55
293,Anloga,5.79,0.9,75.2,88,20,3.36,GH,2020-10-20 04:17:55
294,Richards Bay,-28.78,32.04,70.59,91,45,4.45,ZA,2020-10-20 04:11:05
295,Bad Goisern am Hallstättersee,47.64,13.62,39.2,80,100,11.41,AT,2020-10-20 04:17:55
296,São José da Coroa Grande,-8.9,-35.15,74.8,78,25,9.31,BR,2020-10-20 04:08:38
297,Faya,18.39,42.45,53.6,27,0,6.93,SA,2020-10-20 04:17:56
298,Iskateley,67.68,53.15,24.48,97,99,3.71,RU,2020-10-20 04:17:56
299,Mareeba,-17.0,145.43,91.99,62,3,9.17,AU,2020-10-20 04:11:15
300,Maragogi,-9.01,-35.22,74.26,80,19,9.01,BR,2020-10-20 04:16:58
301,Hargeisa,9.56,44.06,68.79,35,0,1.95,SO,2020-10-20 04:17:57
302,Tessalit,20.2,1.01,77.47,18,0,8.68,ML,2020-10-20 04:08:46
303,Bulgan,48.81,103.53,27.09,85,93,11.59,MN,2020-10-20 04:17:57
304,Perth,-31.93,115.83,78.01,47,20,6.93,AU,2020-10-20 04:17:58
305,Rongcheng,30.63,117.85,68.0,75,50,6.08,CN,2020-10-20 04:17:58
306,Grand Gaube,-20.01,57.66,79.0,66,0,11.99,MU,2020-10-20 04:17:58
307,Luwuk,-0.95,122.79,86.74,60,100,7.74,ID,2020-10-20 04:17:59
308,Cassilândia,-19.11,-51.73,70.39,92,100,8.5,BR,2020-10-20 04:17:59
309,Nikolayevsk-on-Amur,53.14,140.73,36.99,63,0,11.65,RU,2020-10-20 04:17:59
310,Boulder City,35.98,-114.83,75.99,24,90,4.81,US,2020-10-20 04:17:59
311,Bound Brook,40.57,-74.54,55.4,93,75,4.38,US,2020-10-20 04:15:51
312,Bambanglipuro,-7.95,110.28,87.89,58,75,7.76,ID,2020-10-20 04:18:00
313,Esperance,-33.87,121.9,68.0,82,75,11.41,AU,2020-10-20 04:18:00
314,San Quintín,30.48,-115.95,67.6,84,0,11.18,MX,2020-10-20 04:12:43
315,Gigmoto,13.78,124.39,82.04,82,100,13.4,PH,2020-10-20 04:18:00
316,Mount Isa,-20.73,139.5,98.6,14,40,8.05,AU,2020-10-20 04:14:26
317,Luján,-34.57,-59.1,57.0,98,100,4.0,AR,2020-10-20 04:18:01
318,Dingle,11.0,122.67,80.26,87,100,3.58,PH,2020-10-20 04:11:58
319,Bonthe,7.53,-12.51,77.4,88,95,3.53,SL,2020-10-20 04:18:02
320,Visnes,59.36,5.22,48.2,93,90,19.46,NO,2020-10-20 04:18:02
321,Senanga,-16.12,23.27,66.79,25,1,5.12,ZM,2020-10-20 04:18:03
322,Zhigansk,66.77,123.37,19.38,96,100,13.51,RU,2020-10-20 04:18:03
323,Jimma,7.67,36.83,56.35,87,0,0.56,ET,2020-10-20 04:18:03
324,Lázaro Cárdenas,17.96,-102.2,79.86,87,34,2.68,MX,2020-10-20 04:08:43
325,Sheridan,44.83,-106.92,39.99,86,90,5.82,US,2020-10-20 04:18:04
326,Tigil',57.8,158.67,39.56,73,100,8.59,RU,2020-10-20 04:18:04
327,Port Macquarie,-31.43,152.92,70.0,61,29,1.99,AU,2020-10-20 04:18:05
328,Rincon,32.3,-81.24,69.8,77,40,9.17,US,2020-10-20 04:17:33
329,Ürümqi,43.8,87.6,59.0,24,0,2.24,CN,2020-10-20 04:13:23
330,Tommot,58.96,126.29,29.14,96,100,5.26,RU,2020-10-20 04:18:05
331,Bacabal,-4.29,-44.79,76.15,87,14,6.11,BR,2020-10-20 04:18:06
332,Broome,42.25,-75.83,57.0,93,90,9.17,US,2020-10-20 04:18:06
333,Shimoda,34.67,138.95,66.2,63,75,19.46,JP,2020-10-20 04:12:50
334,Sioux Lookout,50.1,-91.92,28.4,79,40,3.36,CA,2020-10-20 04:14:12
335,Thompson,55.74,-97.86,26.6,73,90,5.82,CA,2020-10-20 04:18:07
336,Bruneck,46.8,11.94,35.01,92,5,3.36,IT,2020-10-20 04:18:07
337,Tarakan,3.3,117.63,79.92,81,100,6.38,ID,2020-10-20 04:18:07
338,Hamilton,39.18,-84.53,54.0,100,90,2.33,US,2020-10-20 04:09:17
339,Isangel,-19.55,169.27,78.8,69,75,11.41,VU,2020-10-20 04:18:08
340,Tonota,-21.48,27.48,55.4,58,0,3.36,BW,2020-10-20 04:18:08
341,Pangnirtung,66.15,-65.71,23.02,91,96,6.08,CA,2020-10-20 04:18:08
342,Meulaboh,4.14,96.13,88.29,56,4,1.12,ID,2020-10-20 04:12:52
343,Buraidah,26.33,43.98,59.0,41,0,5.82,SA,2020-10-20 04:11:10
344,Barentu,15.11,37.59,71.37,50,0,4.07,ER,2020-10-20 04:18:09
345,Dunedin,-45.87,170.5,51.01,71,94,11.99,NZ,2020-10-20 04:14:25
346,Chapais,49.78,-74.85,26.6,100,90,3.89,CA,2020-10-20 04:18:09
347,Ambon City,-3.7,128.18,87.8,66,75,8.05,ID,2020-10-20 04:13:11
348,Altamira,-3.2,-52.21,73.87,89,95,3.4,BR,2020-10-20 04:18:09
349,Abnūb,27.27,31.15,69.8,64,0,6.93,EG,2020-10-20 04:18:10
350,Dwārka,22.24,68.97,85.96,70,66,7.47,IN,2020-10-20 04:18:10
351,Srīvardhan,18.03,73.02,81.55,77,93,1.83,IN,2020-10-20 04:08:50
352,Muhoroni,-0.15,35.2,68.0,77,75,2.62,KE,2020-10-20 04:18:10
353,Slonim,53.09,25.32,36.95,94,5,8.68,BY,2020-10-20 04:18:11
354,Great Bend,38.36,-98.76,43.0,71,1,5.82,US,2020-10-20 04:18:11
355,Znamenskoye,57.13,73.83,42.08,91,77,5.17,RU,2020-10-20 04:18:11
356,Lodeynoye Pole,60.73,33.55,31.35,99,91,4.65,RU,2020-10-20 04:18:12
357,Jumla,29.27,82.18,65.44,26,0,2.93,NP,2020-10-20 04:18:13
358,Camacha,33.08,-16.33,69.8,88,75,23.04,PT,2020-10-20 04:18:13
359,Otane,-39.88,176.63,57.0,80,100,8.99,NZ,2020-10-20 04:18:13
360,Charters Towers,-20.1,146.27,95.11,20,10,5.08,AU,2020-10-20 04:18:14
361,Carauari,-4.88,-66.9,73.31,87,53,1.36,BR,2020-10-20 04:18:14
362,Kruisfontein,-34.0,24.73,61.0,62,53,5.99,ZA,2020-10-20 04:18:14
363,Motala,58.54,15.04,33.8,86,90,3.36,SE,2020-10-20 04:18:15
364,Yangi Marg`ilon,40.43,71.72,60.8,25,0,2.24,UZ,2020-10-20 04:18:09
365,Yerbogachën,61.28,108.01,25.9,96,100,9.57,RU,2020-10-20 04:18:16
366,Léglise,49.8,5.54,42.01,92,97,8.23,BE,2020-10-20 04:18:16
367,Darhan,49.49,105.92,32.32,76,94,16.31,MN,2020-10-20 04:18:17
368,Karaton,-6.34,106.1,96.01,55,20,9.17,ID,2020-10-20 04:18:17
369,Diamantino,-14.41,-56.45,74.1,78,100,4.81,BR,2020-10-20 04:18:17
370,Northam,51.03,-4.22,57.99,93,58,8.99,GB,2020-10-20 04:18:18
371,Elk Point,42.68,-96.68,35.01,89,93,3.0,US,2020-10-20 04:18:18
372,Alice Springs,-23.7,133.88,91.4,27,20,11.41,AU,2020-10-20 04:17:26
373,St. George's,12.06,-61.75,80.6,83,20,11.41,GD,2020-10-20 04:13:31
374,Opunake,-39.46,173.86,52.0,87,100,8.01,NZ,2020-10-20 04:18:19
375,Kandrian,-6.22,149.55,85.05,63,100,6.4,PG,2020-10-20 04:18:19
376,Gmina Lwówek Śląski,51.11,15.59,45.0,75,76,1.01,PL,2020-10-20 04:18:19
377,Margate,51.38,1.39,55.99,74,100,5.01,GB,2020-10-20 04:07:45
378,Dabat,12.98,37.77,52.11,74,0,3.76,ET,2020-10-20 04:18:20
379,Mattru,7.62,-11.83,72.82,98,59,2.13,SL,2020-10-20 04:18:20
380,Kang,-23.68,22.79,74.48,22,17,4.21,BW,2020-10-20 04:18:21
381,El Batey,19.77,-70.52,77.0,94,20,4.18,DO,2020-10-20 04:18:21
382,Deming,32.27,-107.76,62.6,17,1,6.93,US,2020-10-20 04:18:22
383,Mahina,-17.51,-149.49,82.4,61,20,13.87,PF,2020-10-20 04:18:22
384,Verkh-Usugli,52.7,115.17,40.05,70,100,5.23,RU,2020-10-20 04:18:22
385,Inhambupe,-11.78,-38.35,68.61,96,75,5.46,BR,2020-10-20 04:18:23
386,Norfolk,42.17,-71.25,52.0,93,100,9.17,US,2020-10-20 04:12:06
387,Arkhangelsk,64.54,40.54,26.6,92,75,4.47,RU,2020-10-20 04:15:55
388,Ust'-Kulom,61.69,53.69,33.28,94,100,5.75,RU,2020-10-20 04:18:24
389,Hobyo,5.35,48.53,80.51,76,0,12.19,SO,2020-10-20 04:13:48
390,Beaumont,30.09,-94.1,73.4,100,1,3.36,US,2020-10-20 04:18:24
391,Abeokuta,7.15,3.35,73.27,97,86,2.82,NG,2020-10-20 04:18:25
392,Kiama,-34.68,150.87,70.0,69,60,8.01,AU,2020-10-20 04:18:25
393,Oodweyne,9.41,45.06,73.24,29,0,3.96,SO,2020-10-20 04:18:26
394,Riyadh,24.69,46.72,59.0,38,0,2.24,SA,2020-10-20 04:15:06
395,Vestmanna,62.16,-7.17,37.4,74,5,5.82,FO,2020-10-20 04:18:27
396,Henties Bay,-22.12,14.28,57.0,90,3,3.0,NA,2020-10-20 04:18:28
397,Cidreira,-30.18,-50.21,66.69,93,1,12.17,BR,2020-10-20 04:18:28
398,Arkhangel’skoye,55.85,35.33,33.48,93,76,12.64,RU,2020-10-20 04:18:28
399,Grimshaw,56.18,-117.6,15.8,85,40,11.41,CA,2020-10-20 04:18:29
400,Beloha,-25.17,45.05,72.97,49,0,3.36,MG,2020-10-20 04:18:29
401,Lewiston,44.1,-70.21,50.0,93,90,3.36,US,2020-10-20 04:18:29
402,Conde,-7.26,-34.91,73.4,88,20,5.82,BR,2020-10-20 04:18:30
403,Lujiang,31.26,117.28,69.01,63,75,4.47,CN,2020-10-20 04:18:30
404,Port Hardy,50.7,-127.42,44.6,93,40,4.7,CA,2020-10-20 04:18:30
405,Marabu,4.41,114.01,87.8,66,40,4.7,MY,2020-10-20 04:18:31
406,Kwang Binh,17.48,106.6,70.3,90,100,12.84,VN,2020-10-20 04:09:38
407,Albi,43.93,2.15,62.01,75,95,7.0,FR,2020-10-20 04:18:31
408,Hare Bay,48.85,-54.01,51.8,87,75,12.75,CA,2020-10-20 04:18:32
409,São João da Barra,-21.64,-41.05,72.09,85,100,11.14,BR,2020-10-20 04:18:32
410,Ndélé,8.41,20.65,70.47,74,60,1.41,CF,2020-10-20 04:18:32
411,Ust-Nera,64.57,143.2,10.9,84,20,4.76,RU,2020-10-20 04:18:33
412,Dudinka,69.41,86.18,14.0,85,40,6.71,RU,2020-10-20 04:18:33
413,Kaseda-shirakame,31.42,130.32,69.8,49,20,8.05,JP,2020-10-20 04:18:34
414,Barcarena,-1.51,-48.63,75.2,94,55,8.01,BR,2020-10-20 04:18:34
415,Saint-Lô,49.12,-1.09,57.2,71,100,13.87,FR,2020-10-20 04:18:35
416,Yüksekova,37.57,44.29,44.6,52,0,6.93,TR,2020-10-20 04:18:35
417,Januária,-15.48,-44.37,71.94,78,99,4.7,BR,2020-10-20 04:18:35
418,Kamenka,51.32,42.77,35.04,93,0,7.99,RU,2020-10-20 04:18:36
419,Qaqortoq,60.72,-46.03,33.8,86,100,1.12,GL,2020-10-20 04:18:36
420,Klichka,50.45,118.0,38.88,72,100,1.72,RU,2020-10-20 04:18:36
421,Rio Claro,-22.41,-47.56,66.38,87,99,3.87,BR,2020-10-20 04:18:37
422,Westport,41.14,-73.36,59.0,87,40,4.7,US,2020-10-20 04:14:42
423,Barra do Garças,-15.89,-52.26,71.47,91,74,1.07,BR,2020-10-20 04:18:37
424,Joshīmath,30.57,79.57,65.68,24,0,4.14,IN,2020-10-20 04:18:37
425,Vysokogornyy,50.12,139.15,34.48,73,0,12.82,RU,2020-10-20 04:18:37
426,Constitución,-35.33,-72.42,51.67,72,54,11.72,CL,2020-10-20 04:10:38
427,Birjand,32.87,59.22,48.2,14,0,4.7,IR,2020-10-20 04:18:39
428,Hambantota,6.12,81.12,87.8,66,20,11.41,LK,2020-10-20 04:18:39
429,Mujiayingzi,42.12,118.78,64.09,26,100,17.81,CN,2020-10-20 04:18:39
430,Mil'kovo,54.72,158.62,41.68,61,100,10.74,RU,2020-10-20 04:18:40
431,Lagos,6.58,3.75,76.32,94,74,2.73,NG,2020-10-20 04:18:40
432,Deputatsky,69.3,139.9,11.77,96,94,2.95,RU,2020-10-20 04:13:53
433,Gravdal,68.12,13.5,33.8,74,20,3.36,NO,2020-10-20 04:18:40
434,Anadyr,64.75,177.48,37.4,85,40,11.18,RU,2020-10-20 04:12:33
435,Carutapera,-1.2,-46.02,78.6,82,68,7.54,BR,2020-10-20 04:18:41
436,Benguela,-12.58,13.41,72.41,82,2,3.89,AO,2020-10-20 04:18:41
437,Abu Dhabi,24.47,54.37,75.2,78,0,1.12,AE,2020-10-20 04:15:08
438,Albuquerque,35.08,-106.65,64.4,16,1,5.82,US,2020-10-20 04:17:40
439,Kununurra,-15.77,128.73,100.4,33,32,8.05,AU,2020-10-20 04:14:16
440,Sihorā,23.48,80.12,82.35,57,61,2.24,IN,2020-10-20 04:18:42
441,Laguna,38.42,-121.42,72.0,56,1,4.27,US,2020-10-20 04:14:37
442,Necochea,-38.55,-58.74,48.99,69,0,3.0,AR,2020-10-20 04:12:57
443,Doha,25.29,51.53,84.2,54,0,5.82,QA,2020-10-20 04:18:43
444,Santa Marinella,42.03,11.85,51.01,88,1,4.18,IT,2020-10-20 04:18:43
445,San Felipe,10.34,-68.74,72.64,89,99,3.18,VE,2020-10-20 04:18:44
446,Ağdaş,40.65,47.48,51.8,93,0,6.46,AZ,2020-10-20 04:18:44
447,Coolum Beach,-26.53,153.1,75.99,66,100,7.0,AU,2020-10-20 04:18:44
448,Umluj,25.02,37.27,83.34,34,0,7.94,SA,2020-10-20 04:18:45
449,Biak,-0.91,122.88,84.54,66,100,8.86,ID,2020-10-20 04:13:07
450,Amahai,-3.33,128.92,82.85,72,84,6.49,ID,2020-10-20 04:18:45
451,Kavaratti,10.57,72.64,82.4,78,20,5.82,IN,2020-10-20 04:18:45
452,Mwinilunga,-11.74,24.43,60.82,49,2,3.38,ZM,2020-10-20 04:18:46
453,Nsanje,-16.92,35.26,71.15,77,0,3.62,MW,2020-10-20 04:18:46
454,Thinadhoo,0.53,72.93,82.81,77,97,12.15,MV,2020-10-20 04:18:46
455,Samarai,-10.62,150.67,81.19,81,23,8.72,PG,2020-10-20 04:11:23
456,Ambilobe,-13.2,49.05,81.01,48,2,1.7,MG,2020-10-20 04:18:46
457,Wonthaggi,-38.6,145.59,64.0,72,2,8.75,AU,2020-10-20 04:18:47
458,Mandalgovi,45.76,106.27,21.79,93,63,43.62,MN,2020-10-20 04:18:47
459,Ouahigouya,13.58,-2.42,81.81,48,0,8.32,BF,2020-10-20 04:18:47
460,Fonte Boa,-2.5,-66.27,74.48,94,77,1.39,BR,2020-10-20 04:18:47
461,Gualeguaychú,-33.01,-58.52,70.0,66,70,5.01,AR,2020-10-20 04:18:48
462,Kirensk,57.79,108.11,29.7,89,98,10.94,RU,2020-10-20 04:18:48
463,Bayjī,34.93,43.49,67.1,27,0,3.65,IQ,2020-10-20 04:18:48
464,Malatya Province,38.5,38.0,50.0,71,20,6.93,TR,2020-10-20 04:18:48
465,Panacan,9.25,118.41,84.2,79,90,11.41,PH,2020-10-20 04:18:49
466,Changji,44.02,87.32,59.0,24,0,2.24,CN,2020-10-20 04:18:49
467,Klaksvík,62.23,-6.59,37.4,69,16,5.82,FO,2020-10-20 04:18:49
468,Zhezkazgan,47.8,67.71,47.32,43,0,8.81,KZ,2020-10-20 04:09:27
469,Tūkrah,32.53,20.58,67.28,77,25,3.83,LY,2020-10-20 04:12:44
470,Presque Isle,46.68,-68.02,46.4,93,90,4.56,US,2020-10-20 04:18:50
471,Luau,-10.71,22.22,65.52,66,54,2.39,AO,2020-10-20 04:18:50
472,São Filipe,14.9,-24.5,81.28,72,23,4.85,CV,2020-10-20 04:18:50
473,Kitimat,54.05,-128.65,41.0,100,75,6.93,CA,2020-10-20 04:15:03
474,San Cristobal,7.77,-72.22,67.17,83,95,1.54,VE,2020-10-20 04:18:19
475,Puerto Escondido,15.85,-97.07,84.2,70,75,3.36,MX,2020-10-20 04:18:51
476,Bexhill,-28.77,153.35,75.2,47,75,14.99,AU,2020-10-20 04:18:51
477,San Patricio,28.02,-97.52,79.0,88,40,11.41,US,2020-10-20 04:12:03
478,Mayo,38.89,-76.51,61.0,100,1,8.55,US,2020-10-20 04:18:51
479,Liverpool,53.41,-2.98,53.6,87,100,9.17,GB,2020-10-20 04:18:52
480,Pyn U Lwin,22.03,96.47,89.6,43,75,3.36,MM,2020-10-20 04:18:52
481,Camocim,-2.9,-40.84,76.48,84,16,12.46,BR,2020-10-20 04:18:52
482,Turukhansk,65.82,87.98,16.27,96,99,4.18,RU,2020-10-20 04:18:52
483,Kasongo-Lunda,-6.47,16.82,68.88,93,99,1.54,CD,2020-10-20 04:18:53
484,Constanța,44.18,28.65,50.0,71,75,5.82,RO,2020-10-20 04:15:00
485,Bima,-8.47,118.72,96.78,38,3,1.59,ID,2020-10-20 04:18:53
486,Kochevo,59.6,54.31,35.04,92,100,5.1,RU,2020-10-20 04:18:53
487,Guerrero Negro,27.98,-114.06,71.89,76,0,11.39,MX,2020-10-20 04:18:54
488,Shahreza,32.03,51.88,53.73,27,0,1.61,IR,2020-10-20 04:18:54
489,Tiarei,-17.53,-149.33,82.4,61,20,13.87,PF,2020-10-20 04:18:54
490,Larsnes,62.2,5.58,37.99,92,100,17.22,NO,2020-10-20 04:18:54
491,Mingora,34.78,72.36,74.03,20,0,2.21,PK,2020-10-20 04:18:55
492,Mehamn,71.04,27.85,35.6,80,40,11.41,NO,2020-10-20 04:18:55
493,Saryozek,44.36,77.98,62.35,26,0,5.19,KZ,2020-10-20 04:18:55
494,Sambava,-14.27,50.17,77.0,66,54,12.93,MG,2020-10-20 04:13:20
495,San Andrés,12.58,-81.7,80.6,88,75,6.91,CO,2020-10-20 04:18:55
496,Hailin,44.58,129.42,60.87,41,0,9.75,CN,2020-10-20 04:18:56
497,Nānākuli,21.39,-158.15,82.0,88,90,9.17,US,2020-10-20 04:18:56
498,Vestmannaeyjar,63.44,-20.27,39.09,76,64,3.09,IS,2020-10-20 04:07:43
499,Atambua,-9.11,124.89,89.24,39,3,1.1,ID,2020-10-20 04:10:14
500,Ignacio de la Llave,18.72,-95.98,80.01,88,20,2.24,MX,2020-10-20 04:18:57
501,Wad Rāwah,15.16,33.14,81.48,22,0,8.88,SD,2020-10-20 04:18:57
502,La Ronge,55.1,-105.28,26.6,53,90,5.82,CA,2020-10-20 04:18:57
503,Kloulklubed,7.04,134.26,86.0,74,75,4.7,PW,2020-10-20 04:12:18
504,Kumul,42.8,93.45,56.68,34,0,2.06,CN,2020-10-20 04:18:57
505,Leh,34.17,77.58,42.66,40,0,3.22,IN,2020-10-20 04:18:58
506,Paamiut,61.99,-49.67,41.86,66,100,28.39,GL,2020-10-20 04:10:43
507,Djebeniana,35.03,10.91,60.8,82,20,3.36,TN,2020-10-20 04:18:58
508,Brus Laguna,15.75,-84.48,77.04,87,97,3.09,HN,2020-10-20 04:18:58
509,San Cosme y Damián,-27.32,-56.35,72.59,52,0,5.26,PY,2020-10-20 04:18:59
510,Batticaloa,7.71,81.69,84.92,57,7,5.06,LK,2020-10-20 04:18:59
511,Lima,-12.04,-77.03,62.6,82,7,9.17,PE,2020-10-20 04:16:38
512,Behbahān,30.6,50.24,66.2,29,0,2.59,IR,2020-10-20 04:18:59
513,Gilgit,35.92,74.31,62.64,24,0,4.92,PK,2020-10-20 04:19:00
514,Hīt,33.64,42.83,71.4,24,0,7.4,IQ,2020-10-20 04:19:00
515,Ziyang,29.25,117.85,72.05,54,0,3.6,CN,2020-10-20 04:19:00
516,Beisfjord,68.38,17.6,26.6,86,50,10.29,NO,2020-10-20 04:19:00
517,Biggar,55.62,-3.52,48.0,21,100,4.0,GB,2020-10-20 04:19:01
518,Katiola,8.13,-5.1,70.39,98,10,3.18,CI,2020-10-20 04:19:01
519,Santa Cruz Cabrália,-16.28,-39.02,69.8,88,40,5.82,BR,2020-10-20 04:19:01
520,Alofi,-19.06,-169.92,77.0,73,10,16.11,NU,2020-10-20 04:19:01
521,Unnāo,26.53,80.5,77.0,61,24,4.7,IN,2020-10-20 04:19:02
522,Kondinskoye,59.65,67.41,35.1,97,97,7.34,RU,2020-10-20 04:19:02
523,Laas,46.62,10.7,46.0,50,5,2.24,IT,2020-10-20 04:19:02
524,Ketchikan,55.34,-131.65,46.4,93,20,5.82,US,2020-10-20 04:13:10
525,Bherāmāra,24.02,88.99,87.37,53,22,6.98,BD,2020-10-20 04:19:03
526,Vilyuysk,63.76,121.62,25.72,94,99,8.7,RU,2020-10-20 04:19:03
527,Opuwo,-18.06,13.84,61.12,32,0,3.29,NA,2020-10-20 04:13:44
528,Romny,50.75,33.47,36.23,83,0,8.08,UA,2020-10-20 04:12:59
529,Praia da Vitória,38.73,-27.07,60.8,82,20,25.46,PT,2020-10-20 04:19:04
530,Rāwah,34.48,41.91,68.9,25,0,6.24,IQ,2020-10-20 04:19:04
531,Goundam,16.41,-3.67,85.08,17,0,11.14,ML,2020-10-20 04:19:04
532,Saint-Pierre,-21.34,55.48,78.8,50,0,4.7,RE,2020-10-20 04:19:04
533,Lata,40.16,-8.33,63.0,100,100,1.01,PT,2020-10-20 04:13:55
534,Fairbanks,64.84,-147.72,21.99,85,90,1.99,US,2020-10-20 04:10:03
535,Vallenar,-28.57,-70.76,59.54,40,0,2.55,CL,2020-10-20 04:19:05
536,Mozarlândia,-14.74,-50.57,75.6,78,99,6.6,BR,2020-10-20 04:19:05
537,Jobat,22.42,74.57,84.18,66,40,4.41,IN,2020-10-20 04:19:06
538,Smidovich,48.6,133.82,46.33,53,15,7.81,RU,2020-10-20 04:19:06
539,Borisoglebsk,51.37,42.08,35.6,88,13,7.92,RU,2020-10-20 04:19:06
540,Jaciara,-15.97,-54.97,73.56,85,99,1.3,BR,2020-10-20 04:19:06
541,Yazykovo,55.22,56.14,41.5,90,100,7.0,RU,2020-10-20 04:19:06
542,Bilibino,68.05,166.44,17.1,93,78,3.06,RU,2020-10-20 04:19:07
543,Gorontalo,0.54,123.06,88.72,55,100,8.9,ID,2020-10-20 04:14:11
544,Desaguadero,-16.57,-69.04,48.27,64,47,2.28,PE,2020-10-20 04:19:07
545,Teruel,40.67,-0.67,60.8,87,97,13.87,ES,2020-10-20 04:19:08
546,Petra,30.32,35.48,54.19,70,0,1.86,JO,2020-10-20 04:19:08
547,Saint-Junien,45.88,0.9,57.99,82,100,10.29,FR,2020-10-20 04:19:09
548,Belmonte,-15.86,-38.88,69.8,88,40,5.82,BR,2020-10-20 04:19:09
549,Sturgeon Bay,44.83,-87.38,35.6,64,90,4.7,US,2020-10-20 04:19:09
